id_0,id,atm_group,address,address_rus,lat,long,target,federal_district,region_with_type,area_with_type,city_with_type,city_area,city_district_with_type,capital_marker,settlement_with_type,street_with_type,house,nearest_metro_distance,metro_station_name_1,metro_line_name_1,metro_distance_1,metro_station_name_2,metro_line_name_2,metro_distance_2,metro_station_name_3,metro_line_name_3,metro_distance_3,locality_area,locality_population
2606,5.0,496.5,BUDENNOGO 7A              ELISTA      ,"улица С.М. Будённого, 7А, Элиста, Республика Калмыкия, Россия",46.318213,44.260407,0.0199583047962615,Южный,Респ Калмыкия,,г Элиста,,,2.0,,ул им Буденного С.М.,7А,,,,,,,,,,,53.37692,103122.0
2607,6.0,496.5,"HO CHI MIHN AVE, 19       ULYANOVSK   ","г Ульяновск, пр-кт Хо Ши Мина, д 19",54.2703982,48.3006323,-0.0891106194386873,Приволжский,Ульяновская обл,,г Ульяновск,,р-н Засвияжский,2.0,,пр-кт Хо Ши Мина,19,,,,,,,,,,,326.723424,627705.0
5126,7.0,496.5,SHELESTA 116A             KHABAROVSK  ,"улица Шелеста, 116А, Хабаровск, Россия, 680042",48.520503,135.052576,-0.0487692059789681,Дальневосточный,Хабаровский край,,г Хабаровск,,Кировский р-н,2.0,,ул Шелеста,116А,,,,,,,,,,,389.085968,616372.0
2608,8.0,496.5,ORDZHONIKIDZE 52          YAKUTSK     ,"улица Орджоникидзе, 52, Якутск, Республика Саха (Якутия), Россия, 677027",62.025583,129.721362,-0.0415451611745217,Дальневосточный,Респ Саха /Якутия/,,г Якутск,,,2.0,,ул Орджоникидзе,52,,,,,,,,,,,144.141162,322987.0
2609,10.0,496.5,"VETERANOV AVE, 3          KRASNOKAMENS","проспект Ветеранов, 11, Краснокаменск, Забайкальский край, Россия",50.08905,118.02731,0.025479412289185,Дальневосточный,Забайкальский край,Краснокаменский р-н,г Краснокаменск,,,1.0,,пр-кт Ветеранов,11,,,,,,,,,,,26.359358,51387.0
3874,12.0,496.5,MIRA 6                    KOSTROMA    ,"проспект Мира, 6, Кострома, Россия, 156000",57.769435,40.930802,-0.0899085646576374,Центральный,Костромская обл,,г Кострома,,,2.0,,пр-кт Мира,6,,,,,,,,,,,144.433098,276929.0
112,13.0,496.5,KOMMUNARSKIY 18           BIYSK       ,"Коммунарский переулок, 18, Бийск, Алтайский край, Россия, 659300",52.540672,85.22168,-0.05035007441799,Сибирский,Алтайский край,,г Бийск,,,0.0,,Коммунарский пер,18,,,,,,,,,,,221.290498,199464.0
2610,14.0,496.5,K.LIBKNEKHTA 13           ZHUKOVKA    ,"улица Карла Либкнехта, 3, Жуковка, Брянская область, Россия, 242702",53.530621,33.720726,-0.0919098487755485,Центральный,Брянская обл,Жуковский р-н,г Жуковка,,,1.0,,ул Карла Либкнехта,3,,,,,,,,,,,12.361923,16448.0
5127,15.0,496.5,LENINA 185                DYATKOVO    ,"улица Ленина, 185, Дятьково, Брянская область, Россия, 242603",53.602093,34.331724,-0.0522853877145313,Центральный,Брянская обл,Дятьковский р-н,г Дятьково,,,1.0,,ул Ленина,185,,,,,,,,,,,24.554571,26161.0
1370,16.0,496.5,"III INTERNATSIONALA,10    PETUSHKI    ","улица 3-го Интернационала, 12, Петушки, Владимирская область, Россия",55.936661,39.456244,-0.0075570235493654,Центральный,Владимирская обл,Петушинский р-н,г Петушки,,,1.0,,ул 3 Интернационала,12,,,,,,,,,,,12.897818,12536.0
113,18.0,496.5,VERKHNAYA DUBROVA 26ZH    VLADIMIR    ,"улица Верхняя Дуброва, 26Ж, Владимир, Россия, 600022",56.109039,40.344112,-0.0904744912209494,Центральный,Владимирская обл,,г Владимир,,,2.0,,ул Верхняя Дуброва,26Ж,,,,,,,,,,,0.0,356937.0
1371,21.0,496.5,SOVETSKAYA 126            EGORIEVSK   ,"Советская улица, 126, Егорьевск, Московская область, Россия, 140301",55.380084,39.039462,0.137124795634558,Центральный,Московская обл,,г Егорьевск,,,0.0,,ул Советская,126,,,,,,,,,,,28.840693,72763.0
114,23.0,496.5,SOVETSKAYA 7              TOSNO       ,"Советская улица, 7, Тосно, Тосненское городское поселение, Ленинградская область, Россия, 187000",59.542333,30.880522,-0.0372481385473647,Северо-Западный,Ленинградская обл,Тосненский р-н,г Тосно,,,1.0,,ул Советская,7,,,,,,,,,,,16.831684,36296.0
115,24.0,496.5,PIONERSKAYA 10A           KHABAROVSK  ,"Пионерская улица, 10А, Хабаровск, Россия",48.458826,135.089668,0.0093968232600801,Дальневосточный,Хабаровский край,,г Хабаровск,,,2.0,,ул Пионерская,10а,,,,,,,,,,,389.085968,616372.0
1372,25.0,496.5,KIROVA 44                 UZHUR       ,"улица Кирова, 44, Ужур, Красноярский край, Россия",55.319059,89.839919,-0.105946480714253,Сибирский,Красноярский край,Ужурский р-н,г Ужур,,,1.0,,ул Кирова,44,,,,,,,,,,,25.405277,15333.0
1373,26.0,496.5,"ARBAT,1                   MOSCOW      ","улица Арбат, 1, Москва, Россия, 119019",55.751812,37.599292,-0.145001231474755,Центральный,г Москва,,г Москва,Центральный,р-н Арбат,0.0,,ул Арбат,1,0.1,Арбатская,Филёвская,0.1,Арбатская,Арбатско-Покровская,0.3,Александровский сад,Филёвская,0.6,2562.617022,12678079.0
3875,28.0,496.5,DOSTOEVSKOGO 80           KAZAN       ,"улица Достоевского, 80, Казань, Республика Татарстан, Россия, 420097",55.786885,49.160124,-0.101912830494331,Приволжский,Респ Татарстан,,г Казань,,Вахитовский р-н,2.0,,ул Достоевского,80,1.6,Суконная слобода,Центральная,1.6,Площадь Тукая,Центральная,2.4,Аметьево,Центральная,2.4,635.900158,1257391.0
116,29.0,496.5,LENINA 32                 YUKHNOV     ,"улица Ленина, 32, Юхнов, Калужская область, Россия, 249910",54.740854,35.225583,-0.050898436991619,Центральный,Калужская обл,Юхновский р-н,г Юхнов,,,1.0,,ул Ленина,32,,,,,,,,,,,9.171508,5838.0
2611,30.0,496.5,SHKOLNAYA 4               TULOMA      ,"Школьная улица, 4, село Тулома, сельское поселение Тулома, Кольский район, Мурманская область, Россия, 184362",68.818756,32.690403,-0.0898951648876469,Северо-Западный,Мурманская обл,Кольский р-н,,,,0.0,село Тулома,ул Школьная,4,,,,,,,,,,,183562.746293,753557.0
3876,31.0,496.5,STUDENCHESKAYA 14         KISELEVSK   ,"Студенческая улица, 14, Киселёвск, Кемеровская область, Россия, 652718",54.004157,86.706325,-0.115792747978816,Сибирский,Кемеровская область - Кузбасс,,г Киселевск,,,0.0,,ул Студенческая,14,,,,,,,,,,,187.288491,86573.0
2612,32.0,496.5,STROITELEY 40             ULAN-UDE    ,"проспект Строителей, 40, Улан-Удэ, Республика Бурятия, Россия, 670042",51.809602,107.646181,-0.0288717857848664,Дальневосточный,Респ Бурятия,,г Улан-Удэ,,Октябрьский р-н,2.0,,пр-кт Строителей,40,,,,,,,,,,,366.331365,439128.0
5147,34.0,1022.0,ABB 1 CHUJKOVA            KAZAN       ,"улица Маршала Чуйкова, 1, Казань, Республика Татарстан, Россия, 420094",55.836312,49.103566,-0.0473886955804335,Приволжский,Респ Татарстан,,г Казань,,Ново-Савиновский р-н,2.0,,ул Маршала Чуйкова,1,1.5,Северный вокзал,Центральная,1.5,Яшьлек (Юность),Центральная,1.6,Козья слобода,Центральная,2.1,635.900158,1257391.0
5013,36.0,32.0,"KOMSOMOLSKAYA, 76      TOLYATTI       ","Комсомольская улица, 76, Тольятти, Самарская область, Россия, 445009",53.519311,49.416485,0.133349169296476,Приволжский,Самарская обл,,г Тольятти,,Центральный р-н,0.0,,ул Комсомольская,76,,,,,,,,,,,285.636733,699429.0
4,37.0,32.0,"GVARDEYSKAYA PL., 2    NORILSK        ","Гвардейская площадь, 2, Норильск, Красноярский край, Россия, 663302",69.343541,88.211228,0.0792773520096629,Сибирский,Красноярский край,,г Норильск,,,0.0,,Гвардейская пл,2,,,,,,,,,,,4511.953383,181830.0
3760,39.0,32.0,"SHKOLNAYA, 16          NORILSK        ","Школьная улица, 16, Норильск, Красноярский край, Россия, 663340",69.350498,87.755207,0.187148423451116,Сибирский,Красноярский край,,г Норильск,,р-н Кайеркан,0.0,,ул Школьная,16,,,,,,,,,,,4511.953383,181830.0
5014,40.0,32.0,"TALNAKHSKAYA, 56       NORILSK        ","Талнахская улица, 56, Норильск, Красноярский край, Россия, 663318",69.356626,88.205551,0.173271808610795,Сибирский,Красноярский край,,г Норильск,,Центральный р-н,0.0,,ул Талнахская,56,,,,,,,,,,,4511.953383,181830.0
5015,41.0,32.0,"MOSKOVSKAYA, 2         KYZYL          ","Московская улица, 2, Кызыл, Республика Тыва, Россия, 667010",51.705247,94.40575,0.154532814877082,Сибирский,Респ Тыва,,г Кызыл,,,2.0,,ул Московская,2,,,,,,,,,,,210.100888,119438.0
2508,43.0,32.0,"MIKHAILA POPOVICHA, 4A VOLOGDA        ","улица Михаила Поповича, 12, Вологда, Россия, 160010",59.243606,39.83739,0.109191863615686,Северо-Западный,Вологодская обл,,г Вологда,,,2.0,,ул Михаила Поповича,12,,,,,,,,,,,113.942137,310302.0
1254,44.0,32.0,"GUBAREVICHA, 5         ELISTRA        ","улица Губаревича, 5, Элиста, Республика Калмыкия, Россия, 358000",46.307687,44.272795,0.139542793665258,Южный,Респ Калмыкия,,г Элиста,,,2.0,,ул им Губаревича,5,,,,,,,,,,,53.37692,103122.0
1255,45.0,32.0,"KUBANSKAYA, 23, 2      ASTRAKHAN      ","Кубанская улица, 23к2, Астрахань, Россия, 414057",46.32687,48.039745,0.0965890678166445,Южный,Астраханская обл,,г Астрахань,,,2.0,,ул Кубанская,23,,,,,,,,,,,208.0799,529793.0
5016,48.0,32.0,"SOLNECHNAYA, 18.3      KRASNODAR      ","Солнечная улица, 18/3, Краснодар, Россия",45.071466,39.0044,0.152797460248523,Южный,Краснодарский край,,г Краснодар,,,2.0,,ул Солнечная,18/3,,,,,,,,,,,240.724128,932629.0
5017,50.0,32.0,"VERESHCHAGINA, 45      CHEREPOVETS    ","улица Верещагина, 45, Череповец, Вологодская область, Россия, 162606",59.128135,37.915463,0.151225729758703,Северо-Западный,Вологодская обл,,г Череповец,,,0.0,,ул Верещагина,45,,,,,,,,,,,135.301998,314834.0
3877,52.0,496.5,LENINA 141                TOMSK       ,"проспект Ленина, 141, Томск, Россия, 634009",56.49454,84.94861,-0.118738364149807,Сибирский,Томская обл,,г Томск,,,2.0,,пр-кт Ленина,141,,,,,,,,,,,168.145948,576624.0
3878,53.0,496.5,"50 LET OKTYABRYA,16       PETROPAVLOVS","проспект 50 лет Октября, 16, Петропавловск-Камчатский, Камчатский край, Россия, 683024",53.056366,158.63646,0.0071866264648658,Дальневосточный,Камчатский край,,г Петропавловск-Камчатский,,,2.0,,пр-кт 50 лет Октября,16,,,,,,,,,,,362.374024,179586.0
2613,54.0,496.5,RIBNIKOV 1                UMBA        ,"поселок городского типа Умба, городское поселение Умба, Терский район, Мурманская область, Россия",66.684759,34.344174,-0.111583613038224,Северо-Западный,Мурманская обл,Терский р-н,,,,1.0,пгт Умба,ул Кирова,,,,,,,,,,,,183562.746293,753557.0
1374,55.0,496.5,PERVOMAYSKAYA 59A         KANDALAKSHA ,"Первомайская улица, 59А, Кандалакша, городское поселение Кандалакша, Мурманская область, Россия, 184042",67.153015,32.414943,-0.101442443502253,Северо-Западный,Мурманская обл,Кандалакшский р-н,г Кандалакша,,,1.0,,ул Первомайская,59,,,,,,,,,,,21.708893,30379.0
1375,57.0,496.5,TSENTRALNAYA 9B           SVETLOLOBOVO,"Центральная улица, 9, село Светлолобово, Новосёловский район, Красноярский край, Россия",55.0907185,90.8519863,-0.0800818402124782,Сибирский,Красноярский край,Новоселовский р-н,,,,0.0,с Светлолобово,ул Центральная,9,,,,,,,,,,,2.853669,927.0
2614,59.0,496.5,KRASNOGVARDEYSKAYA 75/1   SPASSK DALNI,"Красногвардейская улица, 75/1, Спасск-Дальний, Приморский край, Россия, 692238",44.576938,132.826623,-0.0295444188673066,Дальневосточный,Приморский край,,г Спасск-Дальний,,,0.0,,ул Красногвардейская,75/1,,,,,,,,,,,44.324431,39765.0
117,61.0,496.5,DZERZHINSKOGO 82/2        VELSK       ,"улица Дзержинского, 82, Вельск, Архангельская область, Россия, 165150",61.069724,42.112419,-0.069485196898084,Северо-Западный,Архангельская обл,Вельский р-н,г Вельск,,,1.0,,ул Дзержинского,82,,,,,,,,,,,0.0,22328.0
118,62.0,496.5,LENINA 2                  USMAN       ,"улица Ленина, 2, Усмань, Липецкая область, Россия",52.038882,39.73668,-0.0560772655674922,Центральный,Липецкая обл,Усманский р-н,г Усмань,,,1.0,,ул Ленина,2,,,,,,,,,,,11.76348,19625.0
2615,64.0,496.5,DZERZHINSKOGO 32          YAKUTSK     ,"улица Дзержинского, 32, Якутск, Республика Саха (Якутия), Россия, 677009",62.045883,129.741026,-0.0170205853646332,Дальневосточный,Респ Саха /Якутия/,,г Якутск,,,2.0,,ул Дзержинского,32,,,,,,,,,,,144.141162,322987.0
5128,65.0,496.5,KRASNOARMEYSKAYA 102      KYZYL       ,"Красноармейская улица, 102, Кызыл, Республика Тыва, Россия, 667000",51.716977,94.439535,0.0179476397601973,Сибирский,Респ Тыва,,г Кызыл,,,2.0,,ул Красноармейская,102,,,,,,,,,,,210.100888,119438.0
2616,66.0,496.5,INTERNATSIONALNAYA 76     KALININGRAD ,"Интернациональная улица, 76, Калининград, Россия, 236044",54.66891,20.510272,-0.142520614744373,Северо-Западный,Калининградская обл,,г Калининград,,Московский р-н,2.0,,ул Интернациональная,76,,,,,,,,,,,0.0,489359.0
2617,67.0,496.5,OKTYABRSKAYA 20           KLINTSI     ,"Октябрьская улица, 20, Клинцы, Брянская область, Россия, 243140",52.749148,32.237607,-0.0722508966931076,Центральный,Брянская обл,,г Клинцы,,,0.0,,ул Октябрьская,20,,,,,,,,,,,31.428492,62992.0
119,68.0,496.5,VOROSHILOVA 6/24          KRASNIY SULI,"улица Ворошилова, 6, Красный Сулин, Ростовская область, Россия",47.894769,40.057549,-0.0662641044561293,Южный,Ростовская обл,Красносулинский р-н,г Красный Сулин,,,1.0,,ул Металлургов,17,,,,,,,,,,,92.395604,37627.0
5129,69.0,496.5,KOLOMEYTSEVA 13A          YASHKUL     ,"улица Коломейцева, 13, поселок Яшкуль, Яшкульский район, Республика Калмыкия, Россия, 359150",46.171941,45.352265,-0.0313454874829662,Южный,Респ Калмыкия,Яшкульский р-н,,,,1.0,поселок Яшкуль,ул Коломейцева,13,,,,,,,,,,,72104.779759,271135.0
2618,70.0,496.5,ZEMLYANOY VAL 29/1        MOSCOW      ,"улица Земляной Вал, 29с1, Москва, Россия",55.757085,37.661356,-0.0666485102464103,Центральный,г Москва,,г Москва,Центральный,,0.0,,ул Земляной Вал,29,0.1,Курская,Калужско-Нижегородский,0.1,Курская,Курско-Рижский,0.1,Курская,Кольцевая,0.2,2562.617022,12678079.0
3879,71.0,496.5,AZINA 55A                 SARAPUL     ,"улица Азина, 55, Сарапул, Удмуртская Республика, Россия, 427974",56.467394,53.806983,-0.0687390909149746,Приволжский,Удмуртская Респ,,г Сарапул,,,0.0,,ул Азина,55,,,,,,,,,,,75.59791,95355.0
120,72.0,496.5,MIRA 11A                  LAKINSK     ,"улица Мира, 11А, Лакинск, Собинский район, Владимирская область, Россия, 601241",56.022348,39.979908,-0.0633030024752921,Центральный,Владимирская обл,Собинский р-н,г Лакинск,,,0.0,,ул Мира,11а,,,,,,,,,,,9.61687,14088.0
1376,73.0,496.5,FRUNZE 2A                 SUKPAK      ,"село Сукпак, Кызылский кожуун, Республика Тыва, Россия",51.645375,94.264373,0.0304689035144139,Сибирский,Респ Тыва,Кызылский р-н,,,,0.0,село Сукпак,,,,,,,,,,,,,168596.19575,321722.0
121,75.0,496.5,SOVETSKAYA 82             STARONIZHEST,"Советская улица, 82, станица Старонижестеблиевская, Красноармейский район, Краснодарский край, Россия",45.377812,38.438713,0.0891053493398533,Южный,Краснодарский край,Красноармейский р-н,,,,0.0,ст-ца Старонижестеблиевская,ул Советская,82,,,,,,,,,,,14.898353,10260.0
122,76.0,496.5,PSKOVSKAYA 2              VOLOGDA     ,"Псковская улица, 2, Вологда, Россия, 160034",59.201007,39.829368,-0.0882078468766762,Северо-Западный,Вологодская обл,,г Вологда,,,2.0,,ул Псковская,2,,,,,,,,,,,113.942137,310302.0
3880,77.0,496.5,LENINA 35                 NOVOZIBKOV  ,"улица Ленина, 35, Новозыбков, Брянская область, Россия, 243020",52.534543,31.94119,-0.0690883399283735,Центральный,Брянская обл,,г Новозыбков,,,0.0,,ул Ленина,35,,,,,,,,,,,38.963258,39510.0
2619,78.0,496.5,KRASNAYA 112              VEL. USTUG  ,"Красная улица, 112, Великий Устюг, Вологодская область, Россия, 162390",60.759095,46.306895,-0.0620400053633821,Северо-Западный,Вологодская обл,Великоустюгский р-н,г Великий Устюг,,,1.0,,ул Красная,112а,,,,,,,,,,,,
5130,79.0,496.5,DZERZHINSKOGO 57          KINTSY      ,"улица Дзержинского, 57, Клинцы, Брянская область, Россия, 243140",52.752844,32.247372,-0.0154044290993901,Центральный,Брянская обл,,г Клинцы,,,0.0,,ул Дзержинского,57,,,,,,,,,,,31.428492,62992.0
123,80.0,496.5,BRYANSKAYA 67A            TRUBCHEVSK  ,"Брянская улица, 67А, Трубчевск, Брянская область, Россия, 242220",52.580391,33.766477,-0.114897273437024,Центральный,Брянская обл,Трубчевский р-н,г Трубчевск,,,1.0,,ул Брянская,67а,,,,,,,,,,,15.055335,13613.0
3881,81.0,496.5,VOROBIEVSKAYA 16A         SERGIEV POSA,"городок Сергиев Посад-6, Сергиево-Посадский район, Московская область, Россия",56.252627,38.115437,0.0248854529068815,,,,,,,,,,,,,,,,,,,,,,
2620,82.0,496.5,LENINA 21                 BALASHIKHA  ,"проспект Ленина, 21, Балашиха, Московская область, Россия, 143900",55.797483,37.935917,-0.047536990588607,Центральный,Московская обл,,г Балашиха,,,0.0,,пр-кт Ленина,21,,,,,,,,,,,100.963501,507366.0
1377,83.0,496.5,KIROVA 28                 YARANSK     ,"улица Кирова, 26, Яранск, Кировская область, Россия, 612260",57.30435,47.884669,0.0185238750810188,Приволжский,Кировская обл,Яранский р-н,г Яранск,,,1.0,,ул Кирова,26,,,,,,,,,,,11.913623,15475.0
124,84.0,496.5,KRUPSKOY 15               ZAKAMENSK   ,"улица Крупской, 15, Закаменск, Республика Бурятия, Россия, 671950",50.375026,103.285462,0.0101635648872072,Дальневосточный,Респ Бурятия,Закаменский р-н,г Закаменск,,,1.0,,ул Заречная 1-я,6,,,,,,,,,,,11.708358,11204.0
3882,85.0,496.5,SADOVAYA 13               MARYANOVKA  ,"Садовая улица, 13, посёлок городского типа Марьяновка, Марьяновский район, Омская область, Россия, 646040",54.965285,72.639651,-0.145001231474755,Сибирский,Омская обл,Марьяновский р-н,,,,1.0,рп Марьяновка,ул Садовая,13,,,,,,,,,,,141256.050588,1926665.0
3883,86.0,496.5,MOSKOVSKAYA 14            PETUSHKI    ,"Московская улица, 14, Петушки, Владимирская область, Россия",55.933327,39.454915,-0.0236394608296985,Центральный,Владимирская обл,Петушинский р-н,г Петушки,,,1.0,,ул Московская,14,,,,,,,,,,,12.897818,12536.0
2621,87.0,496.5,KONEVA 14A                VOLOGDA     ,"улица Маршала Конева, 14А, Вологда, Россия",59.189647,39.901512,-0.116435560127062,Северо-Западный,Вологодская обл,,г Вологда,,,2.0,,ул Маршала Конева,14а,,,,,,,,,,,113.942137,310302.0
125,89.0,496.5,VOLODARSKOGO 1            TARUSA      ,"улица Володарского, 1, Таруса, Калужская область, Россия",54.727084,37.181081,-0.133333245098047,Центральный,Калужская обл,Тарусский р-н,г Таруса,,,0.0,,ул Луначарского,12А,,,,,,,,,,,15.446934,9181.0
5131,91.0,496.5,PERVOMAYSKAYA 4           FEDOROVSKAYA,"Первомайская улица, 1, станица Фёдоровская, Абинский район, Краснодарский край, Россия, 353315",45.079136,38.464468,0.0543352558914627,Южный,Краснодарский край,Абинский р-н,,,,0.0,ст-ца Федоровская,ул Первомайская,1,,,,,,,,,,,5.957337,2081.0
126,93.0,496.5,ASTRAKHANSKAYA 189A       TAMBOV      ,"Астраханская улица, 189А, Тамбов, Россия, 392005",52.675552,41.465308,-0.0778446091413019,Центральный,Тамбовская обл,,г Тамбов,,,2.0,,ул Астраханская,189А,,,,,,,,,,,0.0,292140.0
3884,96.0,496.5,"70 LET OKTYABRYA, 19      OMSK        ","улица 70 лет Октября, 19, Омск, Россия, 644074",54.980885,73.321491,0.0062561472695739,Сибирский,Омская обл,,г Омск,,Кировский округ,2.0,,ул 70 лет Октября,19,,,,,,,,,,,0.0,1154507.0
2622,97.0,496.5,LENINA 78                 BELORECHENSK,"улица Ленина, 78, Белореченск, Краснодарский край, Россия, 352630",44.764501,39.868876,-0.0879684361781098,Южный,Краснодарский край,Белореченский р-н,г Белореченск,,,1.0,,ул Ленина,78,,,,,,,,,,,30.068904,51590.0
5132,98.0,496.5,GORKOGO 122               VOLOGDA     ,"улица Горького, 122, Вологда, Россия, 160014",59.221569,39.912516,-0.0092350777250595,Северо-Западный,Вологодская обл,,г Вологда,,,2.0,,ул Горького,122,,,,,,,,,,,113.942137,310302.0
1378,100.0,496.5,"MOSKOVSKIY PR-T,49        BRYANSK     ","Московский проспект, 49, Брянск, Россия",53.215116,34.423181,-0.101786416792531,Центральный,Брянская обл,,г Брянск,,Фокинский р-н,2.0,,Московский пр-кт,49,,,,,,,,,,,147.007913,402675.0
127,101.0,496.5,LENINGRADSKAYA 58         KHABAROVSK  ,"Ленинградская улица, 58, Хабаровск, Россия, 680021",48.496609,135.07277,-0.0895346682408569,Дальневосточный,Хабаровский край,,г Хабаровск,,,2.0,,ул Ленинградская,58,,,,,,,,,,,389.085968,616372.0
2623,102.0,496.5,KALININA 10               BIROBIDZHAN ,"улица Калинина, 10, Биробиджан, Еврейская автономная область, Россия, 679016",48.792888,132.934501,-0.0529402210093511,Дальневосточный,Еврейская Аобл,,г Биробиджан,,,2.0,,ул Калинина,10,,,,,,,,,,,169.368556,71843.0
1379,104.0,496.5,MINAEVA 15                ULYANOVSK   ,"улица Минаева, 15, Ульяновск, Россия, 432000",54.308198,48.392029,0.0080987312659693,Приволжский,Ульяновская обл,,г Ульяновск,,Ленинский р-н,2.0,,ул Минаева,15,,,,,,,,,,,326.723424,627705.0
128,106.0,496.5,LEKONTA 1/1               OMSK        ,"улица Леконта, 1к1, Омск, Россия, 644020",54.9396246,73.3860003,-0.145001231474755,Сибирский,Омская обл,,г Омск,,,2.0,,ул Леконта,1/1,,,,,,,,,,,0.0,1154507.0
3885,107.0,496.5,SURIKOVA 8                BALAKHTA    ,"улица Сурикова, 8, поселок городского типа Балахта, Балахтинский район, Красноярский край, Россия",55.377567,91.611136,-0.0705554286560662,Сибирский,Красноярский край,Балахтинский р-н,,,,1.0,пгт Балахта,ул Сурикова,8,,,,,,,,,,,17.211215,6458.0
1380,110.0,496.5,MIRA 12-1                 NAZAROVO    ,"улица Мира, 12, Назарово, Красноярский край, Россия, 662202",56.006859,90.402318,-0.0292467204913044,Сибирский,Красноярский край,,г Назарово,,,0.0,,ул Мира,12,,,,,,,,,,,86.425641,49748.0
1381,112.0,496.5,LENINA 95A                IVANOVKA    ,"улица Ленина, 95, село Ивановка, Ивановский район, Амурская область, Россия, 676930",50.364162,127.998897,0.0401523798670273,Дальневосточный,Амурская обл,Ивановский р-н,,,,1.0,село Ивановка,ул Ленина,95,,,,,,,,,,,362552.743103,790044.0
1382,113.0,496.5,LENINA 30                 ELIZOVO     ,"улица Ленина, 30, Елизово, Камчатский край, Россия, 684000",53.192161,158.384079,-0.0839984740775577,Дальневосточный,Камчатский край,Елизовский р-н,г Елизово,,,1.0,,ул Ленина,30,,,,,,,,,,,77.812389,39345.0
2624,114.0,496.5,KALININGRADSKAYA 14       POLESSK     ,"Калининградская улица, 14, Полесск, Калининградская область, Россия, 238630",54.860508,21.107714,-0.025101401200333,Северо-Западный,Калининградская обл,Полесский р-н,г Полесск,,,1.0,,ул Калининградская,14,,,,,,,,,,,11.254403,6887.0
3886,115.0,496.5,LENINA 31                 CHADAN      ,"улица Ленина, 30, Чадан, Дзун-Хемчикский кожуун, Республика Тыва, Россия",51.281301,91.571062,0.0061397193074199,Сибирский,Респ Тыва,Дзун-Хемчикский р-н,г Чадан,,,1.0,,ул Ленина,23,,,,,,,,,,,0.0,9351.0
1383,117.0,496.5,"SOVETSKIY SEVER, 45       KOLPASHEVO  ","улица Советский Север, 45, Колпашево, Томская область, Россия, 636460",58.312131,82.89472,-0.0262728002435054,Сибирский,Томская обл,Колпашевский р-н,г Колпашево,,,1.0,,ул Советский Север,45,,,,,,,,,,,37.943546,22920.0
129,119.0,496.5,"IGNATIEVSKOE AVE,17       BLAGOVESHENS","Игнатьевское шоссе, городской округ Благовещенск, Амурская область, Россия",50.3121751,127.4915405,-0.0307396181924076,Дальневосточный,Амурская обл,,г Благовещенск,,,2.0,,ш Игнатьевское,,,,,,,,,,,,315.162399,226385.0
2625,120.0,496.5,LENINA 5                  SERISHEVO   ,"улица Ленина, 5, посёлок городского типа Серышево, Серышевский район, Амурская область, Россия",51.096564,128.379863,0.0118295455132102,Дальневосточный,Амурская обл,Серышевский р-н,,,,1.0,пгт Серышево,ул Ленина,7,,,,,,,,,,,362552.743103,790044.0
130,121.0,496.5,TAEZHNAYA 32              KAA-KHEM    ,"Таёжная улица, посёлок городского типа Каа-Хем, Кызылский кожуун, Республика Тыва, Россия",51.693519,94.559263,0.0113389673822672,Сибирский,Респ Тыва,Кызылский р-н,,,,1.0,пгт Каа-Хем,ул Баумана,40,,,,,,,,,,,168596.19575,321722.0
1388,122.0,1022.0,ABB 12 PUSHKINA           KAZAN       ,"улица Пушкина, 12, Казань, Республика Татарстан, Россия, 420111",55.789036,49.124838,-0.14219042423916,Приволжский,Респ Татарстан,,г Казань,,Вахитовский р-н,2.0,,ул Пушкина,12,0.3,Площадь Тукая,Центральная,0.3,Кремлевская,Центральная,1.4,Суконная слобода,Центральная,1.7,635.900158,1257391.0
1384,123.0,496.5,SOVETSKAYA 83A            DEBESII     ,"Советская улица, 83, рабочий посёлок Сазоново, Чагодощенский район, Вологодская область, Россия, 162430",59.096194,35.224407,-0.0912387553362556,Северо-Западный,Вологодская обл,Чагодощенский р-н,,,,0.0,рп Сазоново,ул Советская,83,,,,,,,,,,,145650.664404,1160445.0
3887,124.0,496.5,BUTINA 2                  CHITA       ,"улица Бутина, 2, Чита, Забайкальский край, Россия, 672000",52.028372,113.495084,-0.050651904999343,Дальневосточный,Забайкальский край,,г Чита,,,2.0,,ул Бутина,2,,,,,,,,,,,96.656108,351784.0
2626,125.0,496.5,KOCHETOVA 1               KIZIL       ,"улица Кочетова, 1, Кызыл, Республика Тыва, Россия, 667000",51.720358,94.453666,-0.0444745498905754,Сибирский,Респ Тыва,,г Кызыл,,,2.0,,ул Кочетова,1,,,,,,,,,,,210.100888,119438.0
131,126.0,496.5,KRASNOARMEYSKAYA 137      KIZIL       ,"Красноармейская улица, 137, Кызыл, Республика Тыва, Россия",51.716229,94.440685,0.0333146101124605,Сибирский,Респ Тыва,,г Кызыл,,,2.0,,ул Красноармейская,137,,,,,,,,,,,210.100888,119438.0
1385,127.0,496.5,DRUZHBI 137               KIZIL       ,"улица Дружбы, 137, Кызыл, Республика Тыва, Россия, 667005",51.718071,94.444395,0.0067004080412697,Сибирский,Респ Тыва,,г Кызыл,,,2.0,,ул Дружбы,137,,,,,,,,,,,210.100888,119438.0
3888,128.0,496.5,ALDIN-MAADIRSKAYA 65      SUG-AKSI    ,"Алдан-Маадырская улица, село Суг-Аксы, Сут-Хольский кожуун, Республика Тыва, Россия",51.401148,91.279199,0.0131890732437399,,,,,,,,,,,,,,,,,,,,,,
5133,130.0,496.5,SKORIKOVA 17              BELOGORSK   ,"улица Скорикова, 17, Белогорск, Амурская область, Россия, 676850",50.919277,128.480043,-0.0604631627367305,Дальневосточный,Амурская обл,,г Белогорск,,,0.0,,ул Скорикова,17,,,,,,,,,,,103.296601,65315.0
3889,131.0,496.5,LENINA 182                SARAI       ,"улица Ленина, 182, поселок городского типа Сараи, Сараевский район, Рязанская область, Россия, 391870",53.73774,41.006188,-0.0570593024806221,Центральный,Рязанская обл,Сараевский р-н,,,,1.0,рп Сараи,ул Ленина,182,,,,,,,,,,,39710.862707,1121474.0
132,132.0,496.5,KOOPERATIVNAYA 59         CHEKMAGUSH  ,"Кооперативная улица, 59, село Чекмагуш, Чекмагушевский район, Республика Башкортостан, Россия, 452200",55.1378874,54.6520121,-0.0519998491731254,Приволжский,Респ Башкортостан,Чекмагушевский р-н,,,,1.0,с Чекмагуш,ул Кооперативная,59,,,,,,,,,,,142997.46554,4038151.0
5134,134.0,496.5,KOCHETOVA 62              KYZYL       ,"улица Кочетова, 62, Кызыл, Республика Тыва, Россия, 667000",51.718969,94.43375,-0.0372188948185024,Сибирский,Респ Тыва,,г Кызыл,,,2.0,,ул Кочетова,62,,,,,,,,,,,210.100888,119438.0
2627,136.0,496.5,KALININA 5A               KYZYL       ,"улица Калинина, 5А, Кызыл, Республика Тыва, Россия, 667010",51.701362,94.411751,0.0409643742256207,Сибирский,Респ Тыва,,г Кызыл,,,2.0,,ул Калинина,5а,,,,,,,,,,,210.100888,119438.0
3890,137.0,496.5,"MOSKOVSKOE SHOSSE,108     ULYANOVSK   ","Московское шоссе, 108, Ульяновск, Россия, 432005",54.306575,48.359644,-0.0638363965827731,Приволжский,Ульяновская обл,,г Ульяновск,,Засвияжский р-н,2.0,,Московское шоссе,108,,,,,,,,,,,326.723424,627705.0
5135,138.0,496.5,STOLBOVAYA 54A/1          ULAN-UDE    ,"Столбовая улица, 54А, Улан-Удэ, Республика Бурятия, Россия, 670047",51.804602,107.634538,-0.12240804088268,Дальневосточный,Респ Бурятия,,г Улан-Удэ,,Октябрьский р-н,2.0,,ул Столбовая,54А,,,,,,,,,,,366.331365,439128.0
133,139.0,496.5,BEREZOVIY 3A              SELENGINSK  ,"микрорайон Берёзовый, 3А, посёлок городского типа Селенгинск, Кабанский район, Республика Бурятия, Россия, 671247",52.00588,106.864125,0.0547418901571502,Дальневосточный,Респ Бурятия,Кабанский р-н,,,,0.0,мкр Березовый (пгт Селенгинск),,3,,,,,,,,,,,351807.660007,985937.0
2628,140.0,496.5,SHAMSHURINA 43            NOVOSIBIRSK ,"улица Дмитрия Шамшурина, 43, Новосибирск, Россия, 630004",55.03573,82.896184,-0.103298016295825,Сибирский,Новосибирская обл,,г Новосибирск,,Железнодорожный р-н,2.0,,ул Дмитрия Шамшурина,43,0.1,Пл. Гарина-Михайловского,Дзержинская,0.1,Красный проспект,Ленинская,1.5,Сибирская,Дзержинская,1.6,480.886137,1625631.0
1386,142.0,496.5,PETINA 4                  VOLOGDA     ,"улица Петина, 4, Вологда, Россия, 160002",59.213501,39.851054,-0.0236695030605753,Северо-Западный,Вологодская обл,,г Вологда,,,2.0,,ул Петина,4,,,,,,,,,,,113.942137,310302.0
1387,143.0,496.5,LENINA 42                 KIZIL       ,"улица Ленина, 42, Кызыл, Республика Тыва, Россия, 667000",51.720325,94.43322,0.0639029821037748,Сибирский,Респ Тыва,,г Кызыл,,,2.0,,ул Ленина,42,,,,,,,,,,,210.100888,119438.0
2629,144.0,496.5,BLAGOVESCHENSKAYA 4       VOLOGDA     ,"Благовещенская улица, 4, Вологда, Россия, 160000",59.220243,39.884857,-0.0664346012716338,Северо-Западный,Вологодская обл,,г Вологда,,,2.0,,ул Благовещенская,4,,,,,,,,,,,113.942137,310302.0
134,145.0,496.5,"POSHEKHONSKOE AVE,22      VOLOGDA     ","Пошехонское шоссе, 22, Вологда, Россия",59.197256,39.859246,-0.0102731394399717,Северо-Западный,Вологодская обл,,г Вологда,,,2.0,,Пошехонское шоссе,22,,,,,,,,,,,113.942137,310302.0
5136,146.0,496.5,SHKOTOVA 4                KHABAROVSK  ,"улица Шкотова, 4, Хабаровск, Россия, 680014",48.465147,135.120704,-0.0861229148612231,Дальневосточный,Хабаровский край,,г Хабаровск,,,2.0,,ул Шкотова,4,,,,,,,,,,,389.085968,616372.0
5137,147.0,496.5,SUSHEVSKIY VAL 46         MOSCOW      ,"улица Сущёвский Вал, 46, Москва, Россия, 127018",55.792696,37.612551,-0.0302301138622798,Центральный,г Москва,,г Москва,Центральный,,0.0,,ул Сущёвский Вал,46,0.3,Марьина Роща,Люблинско-Дмитровская,0.3,Марьина Роща,Большая кольцевая линия,0.5,Марьина Роща,Калужско-Нижегородский,1.0,2562.617022,12678079.0
3891,148.0,496.5,BLUKHERA 19               NOVOSIBIRSK ,"улица Блюхера, 19, Новосибирск, Россия, 630078",54.985039,82.891279,-0.0665714017595054,Сибирский,Новосибирская обл,,г Новосибирск,,Ленинский р-н,2.0,,ул Блюхера,19,0.3,Площадь Маркса,Ленинская,0.3,Студенческая,Ленинская,1.1,Речной вокзал,Ленинская,4.0,480.886137,1625631.0
1396,151.0,1022.0,ABB 2A LOMZHINSKAYA       KAZAN       ,"Ломжинская улица, 2А, Казань, Республика Татарстан, Россия, 420140",55.766405,49.221407,-0.110887275525312,Приволжский,Респ Татарстан,,г Казань,,Советский р-н,2.0,,ул Ломжинская,2А,2.0,Проспект Победы,Центральная,2.0,Горки,Центральная,2.1,Дубравная,Центральная,2.6,635.900158,1257391.0
144,153.0,1022.0,ABB 13 B. KHMELNICKOGO    CHELYABINSK ,"улица Богдана Хмельницкого, 13, Челябинск, Россия, 454047",55.257591,61.395834,-0.145001231474755,Уральский,Челябинская обл,,г Челябинск,,Металлургический р-н,2.0,,ул Богдана Хмельницкого,13,,,,,,,,,,,504.618068,1196680.0
5148,154.0,1022.0,ABB 35-2 PR.-BULACHNAYA   KAZAN       ,"Лево-Булачная улица, 34к1, Казань, Республика Татарстан, Россия, 420111",55.790251,49.108606,-0.060562235961188,Приволжский,Респ Татарстан,,г Казань,,Вахитовский р-н,2.0,,ул Лево-Булачная,34,0.6,Кремлевская,Центральная,0.6,Площадь Тукая,Центральная,0.9,Суконная слобода,Центральная,2.5,635.900158,1257391.0
1397,157.0,1022.0,ABB 42 KRASNOARMEJSKAYA   JOSHKAR-OLA ,"Красноармейская улица, 42, Йошкар-Ола, Республика Марий Эл, Россия, 424036",56.641664,47.894443,-0.0980046243402665,Приволжский,Респ Марий Эл,,г Йошкар-Ола,,,2.0,,ул Красноармейская,42,,,,,,,,,,,87.299587,274715.0
5164,158.0,1942.0,13-1 REVOLYUTSII STR      PERM        ,"улица Революции, 13к1, Пермь, Россия",58.007761,56.262699,0.0351252304395342,Приволжский,Пермский край,,г Пермь,,Свердловский р-н,2.0,,ул Революции,13,,,,,,,,,,,807.279609,1055397.0
5165,159.0,1942.0,39 KRUPSKOY               PERM        ,"улица Крупской, 39, Пермь, Россия, 614070",58.015203,56.28151,-0.006752774321984,Приволжский,Пермский край,,г Пермь,,Мотовилихинский р-н,2.0,,ул Крупской,39,,,,,,,,,,,807.279609,1055397.0
165,161.0,1942.0,84 M.RYBALKO STR.         PERM        ,"улица Маршала Рыбалко, 84, Пермь, Россия, 614113",58.008839,55.962213,-0.0827688747571967,Приволжский,Пермский край,,г Пермь,,Кировский р-н,2.0,,ул Маршала Рыбалко,84,,,,,,,,,,,807.279609,1055397.0
3924,162.0,1942.0,85A KUYBYSHEVA STR.       PERM        ,"улица Куйбышева, 85А, Пермь, Россия",57.99341,56.24705,-0.102217481250685,Приволжский,Пермский край,,г Пермь,,,2.0,,ул Куйбышева,85а,,,,,,,,,,,807.279609,1055397.0
1418,164.0,1942.0,16 POPOVA STR.            PERM        ,"улица Попова, 16, Пермь, Россия",58.008433,56.228132,-0.0875504966085618,Приволжский,Пермский край,,г Пермь,,,2.0,,ул Попова,16,,,,,,,,,,,807.279609,1055397.0
2655,165.0,1942.0,2 YASNAYA STR.            EKATERINBURG,"Ясная улица, 2, микрорайон Юго-Западный, Екатеринбург, Свердловская область, Россия, 620102",56.816341,60.585913,-0.0172591726243991,Уральский,Свердловская обл,,г Екатеринбург,,,2.0,,ул Ясная,2,1.6,Геологическая,Север-Юг,1.6,Чкаловская,Север-Юг,1.7,Площадь 1905 года,Север-Юг,2.4,398.477096,1493749.0
3925,168.0,1942.0,KARLA MARKSA 151/1        MAGNITOGORSK,"проспект Карла Маркса, 151/1, Магнитогорск, Челябинская область, Россия, 455038",53.3802892,58.981866,-0.075282954525002,Уральский,Челябинская обл,,г Магнитогорск,,,0.0,,пр-кт Карла Маркса,151,,,,,,,,,,,339.746753,413253.0
166,169.0,1942.0,52 TOKAREY ST.            EKATERINBURG,"улица Токарей, 52, Екатеринбург, Свердловская область, Россия, 620109",56.829487,60.560563,-0.0752526029714781,Уральский,Свердловская обл,,г Екатеринбург,,Верх-Исетский р-н,2.0,,ул Токарей,52,2.5,Площадь 1905 года,Север-Юг,2.5,Геологическая,Север-Юг,2.6,Динамо,Север-Юг,3.1,398.477096,1493749.0
167,170.0,1942.0,"ST FURMANOVA,37           EKATERINBURG","улица Фурманова, 37, Екатеринбург, Свердловская область, Россия, 620142",56.8156956,60.611833,-0.0487935415895887,Уральский,Свердловская обл,,г Екатеринбург,,Ленинский р-н,2.0,,ул Фурманова,37,0.8,Чкаловская,Север-Юг,0.8,Геологическая,Север-Юг,1.3,Ботаническая,Север-Юг,2.4,398.477096,1493749.0
2656,171.0,1942.0,"ST METALLURGOV,87         EKATERINBURG","улица Металлургов, 87, Екатеринбург, Свердловская область, Россия, 620043",56.8238857,60.5044978,-0.053025957326461,Уральский,Свердловская обл,,г Екатеринбург,,Верх-Исетский р-н,2.0,,ул Металлургов,87,,,,,,,,,,,398.477096,1493749.0
1419,172.0,1942.0,UL METALLURGOV 87         EKATERINBURG,"улица Металлургов, 87, Екатеринбург, Свердловская область, Россия, 620043",56.8238857,60.5044978,-0.0361530351876336,Уральский,Свердловская обл,,г Екатеринбург,,Верх-Исетский р-н,2.0,,ул Металлургов,87,,,,,,,,,,,398.477096,1493749.0
3926,173.0,1942.0,UL PUSHKINA 50            PERM        ,"улица Пушкина, 50, Пермь, Россия",58.008014,56.250374,-0.0974672893006221,Приволжский,Пермский край,,г Пермь,,,2.0,,ул Пушкина,50,,,,,,,,,,,807.279609,1055397.0
2665,175.0,1942.0,17 GORKOGO STR            EKATERINBURG,"улица Горького, 17, Екатеринбург, Свердловская область, Россия, 620075",56.8409839,60.6061961,0.0027376808223247,Уральский,Свердловская обл,,г Екатеринбург,,,2.0,,ул Горького,17,0.7,Площадь 1905 года,Север-Юг,0.7,Динамо,Север-Юг,0.9,Геологическая,Север-Юг,1.6,398.477096,1493749.0
3931,176.0,1942.0,51 LENINA AVE             MAGNITOGORSK,"проспект Ленина, 51, Магнитогорск, Челябинская область, Россия, 455000",53.418337,58.984918,0.0170118483037353,Уральский,Челябинская обл,,г Магнитогорск,,,0.0,,пр-кт Ленина,51,,,,,,,,,,,339.746753,413253.0
3932,179.0,1942.0,45 SOVETSKAYA STR.        PERM        ,"Советская улица, 45, Пермь, Россия",58.014622,56.238489,0.0315130273529183,Приволжский,Пермский край,,г Пермь,,,2.0,,ул Советская,45,,,,,,,,,,,807.279609,1055397.0
3933,180.0,1942.0,45 SOVETSKAYA STR.        PERM        ,"Советская улица, 45, Пермь, Россия",58.014622,56.238489,0.0140845908844559,Приволжский,Пермский край,,г Пермь,,,2.0,,ул Советская,45,,,,,,,,,,,807.279609,1055397.0
1427,181.0,1942.0,53 LENINA AV.             CHELYABINSK ,"проспект Ленина, 53, Челябинск, Россия, 454091",55.160108,61.40568,-0.03952013283203,Уральский,Челябинская обл,,г Челябинск,,,2.0,,пр-кт Ленина,53,,,,,,,,,,,504.618068,1196680.0
2666,184.0,1942.0,69 LENINA AV.             N.TAGIL     ,"проспект Ленина, 69, Нижний Тагил, Свердловская область, Россия, 622034",57.909556,59.981239,0.0615524165089887,Уральский,Свердловская обл,,г Нижний Тагил,,,0.0,,пр-кт Ленина,69,,,,,,,,,,,304.05716,349008.0
5175,185.0,1942.0,108 KIROVA STR.           CHELAYBINSK ,"улица Кирова, 108, Челябинск, Россия, 454091",55.16251,61.399508,-0.0622050711300372,Уральский,Челябинская обл,,г Челябинск,,,2.0,,ул Кирова,108,,,,,,,,,,,504.618068,1196680.0
3934,186.0,1942.0,5-4 STALEVAROV STR.       CHELYABINSK ,"улица Сталеваров, 5к4, Челябинск, Россия, 454047",55.2629,61.4032085,-0.0040035273402372,Уральский,Челябинская обл,,г Челябинск,,Металлургический р-н,2.0,,ул Сталеваров,5,,,,,,,,,,,504.618068,1196680.0
5176,188.0,1942.0,35 DOVATORA STR.          CHELYABINSK ,"улица Доватора, 35, Челябинск, Россия, 454048",55.145915,61.382458,0.0396436686331351,Уральский,Челябинская обл,,г Челябинск,,Советский р-н,2.0,,ул Доватора,35,,,,,,,,,,,504.618068,1196680.0
1428,189.0,1942.0,32A MOLODOGVARDEYTSEV STR CHELYABINSK ,"улица Молодогвардейцев, 32А, Челябинск, Россия, 454084",55.195472,61.331802,-0.0311456376117907,Уральский,Челябинская обл,,г Челябинск,,,2.0,,ул Молодогвардейцев,32А,,,,,,,,,,,504.618068,1196680.0
1417,192.0,1942.0,3 VOLODARSKOGO STR.       EKATERINBURG,"улица Володарского, 3, Екатеринбург, Свердловская область, Россия, 620014",56.8387033,60.5959808,-0.0752424897166098,Уральский,Свердловская обл,,г Екатеринбург,,Верх-Исетский р-н,2.0,,ул Володарского,3,0.3,Площадь 1905 года,Север-Юг,0.3,Динамо,Север-Юг,1.0,Геологическая,Север-Юг,1.4,398.477096,1493749.0
1429,194.0,1942.0,61A LENINA STR.           CHAYKOVSKIY ,"улица Ленина, 61Ауч1, Чайковский, Пермский край, Россия, 617764",56.771763,54.156536,-0.0326724767802973,Приволжский,Пермский край,,г Чайковский,,,0.0,,ул Ленина,61б,,,,,,,,,,,57.616021,82382.0
5177,195.0,1942.0,18A DARVINA STR.          CHELYABINSK ,"улица Дарвина, 18А, Челябинск, Россия, 454087",55.128742,61.370385,-0.0166877319117309,Уральский,Челябинская обл,,г Челябинск,,Советский р-н,2.0,,ул Дарвина,18А,,,,,,,,,,,504.618068,1196680.0
174,196.0,1942.0,166 TRUDA STR.            CHELYABINSK ,"улица Труда, 166, Челябинск, Россия, 454080",55.170784,61.374562,0.0092512948471232,Уральский,Челябинская обл,,г Челябинск,,Центральный р-н,2.0,,ул Труда,166,,,,,,,,,,,504.618068,1196680.0
5178,197.0,1942.0,15 CHERKASSKAYA STR       CHELYABINSK ,"Черкасская улица, 15, Челябинск, Россия, 454036",55.230436,61.378371,0.0200289589657215,Уральский,Челябинская обл,,г Челябинск,,,2.0,,ул Черкасская,15,,,,,,,,,,,504.618068,1196680.0
2667,199.0,1942.0,41/1 MIRA AV.             PERM        ,"г Пермь, ул Мира, д 41/1",57.9777694,56.1887593,-0.0217374550885542,Приволжский,Пермский край,,г Пермь,,р-н Индустриальный,2.0,,ул Мира,41/1,,,,,,,,,,,807.279609,1055397.0
175,200.0,1942.0,86 VEDENEEVA STR.         PERM        ,"улица Академика Веденеева, 86, Пермь, Россия, 614038",58.103704,56.385436,-0.0142961210681387,Приволжский,Пермский край,,г Пермь,,Орджоникидзевский р-н,2.0,,ул Академика Веденеева,86,,,,,,,,,,,807.279609,1055397.0
1430,202.0,1942.0,86 YURSHA                 PERM        ,"улица Юрша, 86, Пермь, Россия, 614051",58.001485,56.304569,0.0036214860312869,Приволжский,Пермский край,,г Пермь,,Мотовилихинский р-н,2.0,,ул Юрша,86,,,,,,,,,,,807.279609,1055397.0
5179,203.0,1942.0,55/2 USHAKOVA STR.        PERM        ,"улица Адмирала Ушакова, 55/2, Пермь, Россия, 614109",58.026576,56.001972,-0.0041298525962699,Приволжский,Пермский край,,г Пермь,,Кировский р-н,2.0,,ул Адмирала Ушакова,55/2,,,,,,,,,,,807.279609,1055397.0
176,204.0,1942.0,13 REVOLYUTSII STR        PERM        ,"улица Революции, 13, Пермь, Россия",58.007599,56.261908,0.0368468129447201,Приволжский,Пермский край,,г Пермь,,Свердловский р-н,2.0,,ул Революции,13,,,,,,,,,,,807.279609,1055397.0
1431,206.0,1942.0,147 KUYBISHEVA STR        PERM        ,"улица Куйбышева, 147, Пермь, Россия",57.96516,56.243797,-0.0215856550891478,Приволжский,Пермский край,,г Пермь,,,2.0,,ул Куйбышева,147,,,,,,,,,,,807.279609,1055397.0
3921,207.0,1942.0,35 URALSKIKH RABOCHIKH ST EKATERINBURG,"улица Уральских Рабочих, 35, Орджоникидзевский район, Екатеринбург, Свердловская область, Россия, 620012",56.8953638,60.5997323,-0.04724082165014,Уральский,Свердловская обл,,г Екатеринбург,,Орджоникидзевский р-н,2.0,,ул Уральских рабочих,35,1.0,Проспект Космонавтов,Север-Юг,1.0,Уралмаш,Север-Юг,1.2,Машиностроителей,Север-Юг,2.0,398.477096,1493749.0
5180,209.0,1942.0,87 KABELSCHIKOV STR       PERM        ,"улица Кабельщиков, 87, Пермь, Россия, 614112",58.11183,56.288705,-0.0873459673097155,Приволжский,Пермский край,,г Пермь,,Орджоникидзевский р-н,2.0,,ул Кабельщиков,87,,,,,,,,,,,807.279609,1055397.0
177,211.0,1942.0,2A KIROVA STR.            CHELYABINSK ,"улица Кирова, 2А, Челябинск, Россия, 454084",55.18378,61.398107,-0.0082759676376802,Уральский,Челябинская обл,,г Челябинск,,,2.0,,ул Кирова,2А,,,,,,,,,,,504.618068,1196680.0
178,212.0,1942.0,38 IVANA FRANKO STR       PERM        ,"улица Ивана Франко, 38, Пермь, Россия, 614056",58.063254,56.354489,0.0051556292855728,Приволжский,Пермский край,,г Пермь,,Мотовилихинский р-н,2.0,,ул Ивана Франко,38,,,,,,,,,,,807.279609,1055397.0
179,213.0,1942.0,15 ZHUKOVA STR.           MAGNITOGORSK,"улица Жукова, 15, Магнитогорск, Челябинская область, Россия, 455051",53.355992,58.970625,-0.0548598154894079,Уральский,Челябинская обл,,г Магнитогорск,,Орджоникидзевский р-н,0.0,,ул Жукова,15,,,,,,,,,,,339.746753,413253.0
1432,214.0,1942.0,22 MARCHENKO              CHELYABINSK ,"улица Марченко, 22, Челябинск, Россия, 454085",55.16704,61.459129,0.0087114947207821,Уральский,Челябинская обл,,г Челябинск,,Тракторозаводский р-н,2.0,,ул Марченко,22,,,,,,,,,,,504.618068,1196680.0
3935,215.0,1942.0,51 LENINA AVE             MAGNITOGORSK,"проспект Ленина, 51, Магнитогорск, Челябинская область, Россия, 455000",53.418337,58.984918,0.0514779835442321,Уральский,Челябинская обл,,г Магнитогорск,,,0.0,,пр-кт Ленина,51,,,,,,,,,,,339.746753,413253.0
180,217.0,1942.0,7 MOLODOGVARDEYTSEV       CHELYABINSK ,"улица Молодогвардейцев, 7, Челябинск, Россия, 454901",55.204793,61.327311,-0.0053415141242836,Уральский,Челябинская обл,,г Челябинск,,,2.0,,ул Молодогвардейцев,7,,,,,,,,,,,504.618068,1196680.0
2668,218.0,1942.0,27 SALYUTNAYA STR.        CHELYABINSK ,"Салютная улица, 27, Челябинск, Россия, 454071",55.169663,61.444065,-0.0476857090795877,Уральский,Челябинская обл,,г Челябинск,,Тракторозаводский р-н,2.0,,ул Салютная,27,,,,,,,,,,,504.618068,1196680.0
1433,219.0,1942.0,203 TRUDA STR.            CHELYABINSK ,"улица Труда, 203, Челябинск, Россия, 454080",55.171051,61.355976,0.0045888835705977,Уральский,Челябинская обл,,г Челябинск,,Центральный р-н,2.0,,ул Труда,203,,,,,,,,,,,504.618068,1196680.0
5163,220.0,1942.0,22 KARLA MARKSA STR.      EKATERINBURG,"улица Карла Маркса, 22, Екатеринбург, Свердловская область, Россия, 620026",56.830857,60.616671,-0.028623320591325,Уральский,Свердловская обл,,г Екатеринбург,,,2.0,,ул Карла Маркса,22,0.9,Геологическая,Север-Юг,0.9,Площадь 1905 года,Север-Юг,1.2,Динамо,Север-Юг,2.2,398.477096,1493749.0
3936,221.0,1942.0,75 URALSKAYA STR.         EKATERINBURG,"Уральская улица, 75, микрорайон Пионерский, Кировский район, Екатеринбург, Свердловская область, Россия, 620137",56.853725,60.63806,0.0390736700014643,Уральский,Свердловская обл,,г Екатеринбург,,Кировский р-н,2.0,,ул Уральская,75,2.3,Уральская,Север-Юг,2.3,Динамо,Север-Юг,2.4,Площадь 1905 года,Север-Юг,3.0,398.477096,1493749.0
3937,222.0,1942.0,75 URALSKAYA STR.         EKATERINBURG,"Уральская улица, 75, микрорайон Пионерский, Кировский район, Екатеринбург, Свердловская область, Россия, 620137",56.853725,60.63806,0.0083613572030307,Уральский,Свердловская обл,,г Екатеринбург,,Кировский р-н,2.0,,ул Уральская,75,2.3,Уральская,Север-Юг,2.3,Динамо,Север-Юг,2.4,Площадь 1905 года,Север-Юг,3.0,398.477096,1493749.0
3927,225.0,1942.0,8 MARTA STR.              EKATERINBURG,"улица 8 Марта, Екатеринбург, Свердловская область, Россия",56.81433,60.60785,0.0535336657708954,Уральский,Свердловская обл,,г Екатеринбург,,,2.0,,ул 8 Марта,,,,,,,,,,,,398.477096,1493749.0
5166,226.0,1942.0,46 8 MARTA STR.           EKATERINBURG,"улица 8 Марта, 46, Екатеринбург, Свердловская область, Россия, 620014",56.829103,60.598939,0.0360784795860444,Уральский,Свердловская обл,,г Екатеринбург,,,2.0,,ул 8 Марта,46,0.4,Геологическая,Север-Юг,0.4,Площадь 1905 года,Север-Юг,0.8,Динамо,Север-Юг,2.1,398.477096,1493749.0
1420,228.0,1942.0,35A VATUTINA STR.         PERVOURALSK ,"улица Ватутина, 35А, Первоуральск, Свердловская область, Россия, 623104",56.902044,59.942118,0.0201424544777852,Уральский,Свердловская обл,,г Первоуральск,,,0.0,,ул Ватутина,35а,,,,,,,,,,,87.024523,120778.0
1434,229.0,1942.0,9 UINSKAYA STR.           PERM        ,"Уинская улица, 9, Пермь, Россия, 614051",58.006783,56.304587,-0.0049650784151502,Приволжский,Пермский край,,г Пермь,,Мотовилихинский р-н,2.0,,ул Уинская,9,,,,,,,,,,,807.279609,1055397.0
3922,230.0,1942.0,19 PALMIRO TOLYATTI       EKATERINBURG,"улица Пальмиро Тольятти, 19, Екатеринбург, Свердловская область, Россия, 620102",56.821681,60.577918,-0.0669580909810605,Уральский,Свердловская обл,,г Екатеринбург,,Верх-Исетский р-н,2.0,,ул Пальмиро Тольятти,19,1.7,Геологическая,Север-Юг,1.7,Площадь 1905 года,Север-Юг,2.1,Чкаловская,Север-Юг,2.5,398.477096,1493749.0
5167,231.0,1942.0,5 MALYSHEVA STR.          EKATERINBURG,"улица Малышева, 5, Екатеринбург, Свердловская область, Россия, 620014",56.832969,60.582365,0.0084202152528134,Уральский,Свердловская обл,,г Екатеринбург,,,2.0,,ул Малышева,5,1.1,Площадь 1905 года,Север-Юг,1.1,Геологическая,Север-Юг,1.5,Динамо,Север-Юг,1.9,398.477096,1493749.0
3938,234.0,1942.0,41/1 MIRA STR.            PERM        ,"улица Мира, 41/1, Пермь, Россия",57.977684,56.18875,-0.0065766282778621,Приволжский,Пермский край,,г Пермь,,Свердловский р-н,2.0,,ул Мира,41/1,,,,,,,,,,,807.279609,1055397.0
5181,235.0,1942.0,150 PYATILETKI STR.       BEREZNIKI   ,"улица Пятилетки, 150, Березники, муниципальное образование Город Березники, Пермский край, Россия, 618426",59.392796,56.856512,-0.135635593385731,Приволжский,Пермский край,,г Березники,,,0.0,,ул Пятилетки,150,,,,,,,,,,,429.154134,139209.0
5182,236.0,1942.0,105A GEROEV KHASANA STR.  PERM        ,"улица Героев Хасана, 105А, Пермь, Россия, 614025",57.9659678,56.2624212,0.0266831101560018,Приволжский,Пермский край,,г Пермь,,Свердловский р-н,2.0,,ул Героев Хасана,105а,,,,,,,,,,,807.279609,1055397.0
5183,237.0,1942.0,38 LASVINSKAYA STR.       PERM        ,"Ласьвинская улица, 38, Пермь, Россия, 614042",58.005548,55.937967,-0.108717650026184,Приволжский,Пермский край,,г Пермь,,Кировский р-н,2.0,,ул Ласьвинская,38,,,,,,,,,,,807.279609,1055397.0
1435,238.0,1942.0,6 GERTSENA STR.           MAGNITOGORSK,"улица Герцена, 6, Магнитогорск, Челябинская область, Россия, 455001",53.430384,58.973222,0.0907918069157151,Уральский,Челябинская обл,,г Магнитогорск,,Ленинский р-н,0.0,,ул Герцена,6,,,,,,,,,,,339.746753,413253.0
3939,239.0,1942.0,14 VILYAMSA STR.          PERM        ,"улица Вильямса, 14, Пермь, Россия, 614030",58.103746,56.298739,-0.104721054628004,Приволжский,Пермский край,,г Пермь,,Орджоникидзевский р-н,2.0,,ул Вильямса,14,,,,,,,,,,,807.279609,1055397.0
3940,240.0,1942.0,14 VILYAMSA STR.          PERM        ,"улица Вильямса, 14, Пермь, Россия, 614030",58.103746,56.298739,0.0233367230637384,Приволжский,Пермский край,,г Пермь,,Орджоникидзевский р-н,2.0,,ул Вильямса,14,,,,,,,,,,,807.279609,1055397.0
2657,241.0,1942.0,12A BELORECHENSKAYA STR.  EKATERINBURG,"Белореченская улица, 12А, микрорайон Юго-Западный, Екатеринбург, Свердловская область, Россия, 620102",56.8186934,60.5658627,0.0680038848420591,Уральский,Свердловская обл,,г Екатеринбург,,Верх-Исетский р-н,2.0,,ул Белореченская,12а,,,,,,,,,,,398.477096,1493749.0
3923,242.0,1942.0,77 TATISHCHEVA STR.       EKATERINBURG,"улица Татищева, 77, Екатеринбург, Свердловская область, Россия, 620131",56.835269,60.548912,-0.0487935415895887,Уральский,Свердловская обл,,г Екатеринбург,,Верх-Исетский р-н,2.0,,ул Татищева,77,3.1,Площадь 1905 года,Север-Юг,3.1,Динамо,Север-Юг,3.4,Геологическая,Север-Юг,3.5,398.477096,1493749.0
2658,243.0,1942.0,17 GORKOGO STR            EKATERINBURG,"улица Горького, 17, Екатеринбург, Свердловская область, Россия, 620075",56.8409839,60.6061961,0.0166892213594343,Уральский,Свердловская обл,,г Екатеринбург,,,2.0,,ул Горького,17,0.7,Площадь 1905 года,Север-Юг,0.7,Динамо,Север-Юг,0.9,Геологическая,Север-Юг,1.6,398.477096,1493749.0
3928,246.0,1942.0,149 8-MARTA STR           EKATERINBURG,"улица 8 Марта, 149, Екатеринбург, Свердловская область, Россия, 620142",56.8068552,60.6123541,0.0583712403402827,Уральский,Свердловская обл,,г Екатеринбург,,,2.0,,ул 8 Марта,149,0.2,Чкаловская,Север-Юг,0.2,Ботаническая,Север-Юг,1.6,Геологическая,Север-Юг,2.3,398.477096,1493749.0
168,247.0,1942.0,12A BELORECHENSKAYA       EKATERINBURG,"Белореченская улица, 12А, микрорайон Юго-Западный, Екатеринбург, Свердловская область, Россия, 620102",56.8186934,60.5658627,0.0216933799139782,Уральский,Свердловская обл,,г Екатеринбург,,Верх-Исетский р-н,2.0,,ул Белореченская,12а,,,,,,,,,,,398.477096,1493749.0
1421,249.0,1942.0,82 SVOBODY STR            CHELYABINSK ,"улица Свободы, 82, Челябинск, Россия, 454091",55.156194,61.412938,0.0275851711595541,Уральский,Челябинская обл,,г Челябинск,,,2.0,,ул Свободы,82,,,,,,,,,,,504.618068,1196680.0
169,253.0,1942.0,136 BEBELYA STR.          EKATERINBURG,"улица Бебеля, 136, Екатеринбург, Свердловская область, Россия, 620141",56.860757,60.552325,0.0265730036652793,Уральский,Свердловская обл,,г Екатеринбург,,,2.0,,ул Бебеля,136,3.0,Уральская,Север-Юг,3.0,Динамо,Север-Юг,3.2,Площадь 1905 года,Север-Юг,3.9,398.477096,1493749.0
164,255.0,1942.0,27 OPALIKHINSKAYA STR.    EKATERINBURG,"Опалихинская улица, 27, Екатеринбург, Свердловская область, Россия, 620034",56.854079,60.559521,-0.0644245802180102,Уральский,Свердловская обл,,г Екатеринбург,,Верх-Исетский р-н,2.0,,ул Опалихинская,27,2.5,Динамо,Север-Юг,2.5,Уральская,Север-Юг,2.5,Площадь 1905 года,Север-Юг,3.1,398.477096,1493749.0
5168,256.0,1942.0,46 8 MARTA STR.           EKATERINBURG,"улица 8 Марта, 46, Екатеринбург, Свердловская область, Россия, 620014",56.829103,60.598939,0.0408415289818143,Уральский,Свердловская обл,,г Екатеринбург,,,2.0,,ул 8 Марта,46,0.4,Геологическая,Север-Юг,0.4,Площадь 1905 года,Север-Юг,0.8,Динамо,Север-Юг,2.1,398.477096,1493749.0
5169,260.0,1942.0,94 REPINA STR             EKATERINBURG,"улица Репина, 94, Екатеринбург, Свердловская область, Россия, 620043",56.8179522,60.5382529,0.0079597578692733,Уральский,Свердловская обл,,г Екатеринбург,,Верх-Исетский р-н,2.0,,ул Репина,94,4.1,Геологическая,Север-Юг,4.1,Площадь 1905 года,Север-Юг,4.2,Чкаловская,Север-Юг,4.5,398.477096,1493749.0
5170,261.0,1942.0,86 KOSMONAVTOV            EKATERINBURG,"проспект Космонавтов, 86, Екатеринбург, Свердловская область, Россия, 620135",56.9068179,60.6146463,-0.0054023145541714,Уральский,Свердловская обл,,г Екатеринбург,,,2.0,,пр-кт Космонавтов,86,0.7,Проспект Космонавтов,Север-Юг,0.7,Уралмаш,Север-Юг,2.1,Машиностроителей,Север-Юг,3.2,398.477096,1493749.0
1422,262.0,1942.0,6 GERTSENA STR.           MAGNITOGORSK,"улица Герцена, 6, Магнитогорск, Челябинская область, Россия, 455001",53.430384,58.973222,0.0670394762516348,Уральский,Челябинская обл,,г Магнитогорск,,Ленинский р-н,0.0,,ул Герцена,6,,,,,,,,,,,339.746753,413253.0
5171,266.0,1942.0,16 MOLDAVSKAYA STR.       CHELYABINSK ,"Молдавская улица, 16, Челябинск, Россия, 454014",55.190668,61.302859,0.0485881630739964,Уральский,Челябинская обл,,г Челябинск,,Курчатовский р-н,2.0,,ул Молдавская,16,,,,,,,,,,,504.618068,1196680.0
2659,267.0,1942.0,27 SALYUTNAYA STR.        CHELYABINSK ,"Салютная улица, 27, Челябинск, Россия, 454071",55.169663,61.444065,0.0082190113742823,Уральский,Челябинская обл,,г Челябинск,,Тракторозаводский р-н,2.0,,ул Салютная,27,,,,,,,,,,,504.618068,1196680.0
2660,268.0,1942.0,194 ROSSIYSKAYA STR.      CHELYABINSK ,"Российская улица, 194, Челябинск, Россия, 454090",55.16359,61.414896,0.0682340216807526,Уральский,Челябинская обл,,г Челябинск,,,2.0,,ул Российская,194,,,,,,,,,,,504.618068,1196680.0
5172,273.0,1942.0,40 CHERNYAKHOVSKOGO STR.  EKATERINBURG,"улица Черняховского, 40, микрорайон Химмаш, Чкаловский район, Екатеринбург, Свердловская область, Россия, 620010",56.752575,60.706638,-0.0289631875256939,Уральский,Свердловская обл,,г Екатеринбург,,Чкаловский р-н,2.0,,ул Черняховского,40,,,,,,,,,,,398.477096,1493749.0
2661,274.0,1942.0,65 ENGELSA STR.           CHELYABINSK ,"улица Энгельса, 65, Челябинск, Россия, 454080",55.160643,61.382386,0.0714207094265457,Уральский,Челябинская обл,,г Челябинск,,Центральный р-н,2.0,,ул Энгельса,65,,,,,,,,,,,504.618068,1196680.0
1423,275.0,1942.0,60 LENINA STR.            PERM        ,"улица Ленина, 60, Пермь, Россия",58.009473,56.233791,0.003697055119556,Приволжский,Пермский край,,г Пермь,,,2.0,,ул Ленина,60,,,,,,,,,,,807.279609,1055397.0
1424,276.0,1942.0,60 LENINA STR.            PERM        ,"улица Ленина, 60, Пермь, Россия",58.009473,56.233791,0.0192192461687611,Приволжский,Пермский край,,г Пермь,,,2.0,,ул Ленина,60,,,,,,,,,,,807.279609,1055397.0
170,279.0,1942.0,60 KOMSOMOLSKIY AV.       PERM        ,"Комсомольская улица, 58, Пермь, Россия",58.059226,56.613994,0.0288801914099292,Приволжский,Пермский край,,г Пермь,,Свердловский р-н,2.0,мкр Новые Ляды,ул Комсомольская,58,,,,,,,,,,,807.279609,1055397.0
2662,280.0,1942.0,60 LENINA STR             PERM        ,"улица Ленина, 60, Пермь, Россия",58.009473,56.233791,-0.0142334064582228,Приволжский,Пермский край,,г Пермь,,,2.0,,ул Ленина,60,,,,,,,,,,,807.279609,1055397.0
1425,281.0,1942.0,65 AMUDSENA               EKATERINBURG,"улица Амундсена, 65, Екатеринбург, Свердловская область, Россия, 620146",56.7963849,60.5816236,0.0040092794965201,Уральский,Свердловская обл,,г Екатеринбург,,Академический р-н,2.0,,ул Амундсена,65,2.2,Чкаловская,Север-Юг,2.2,Ботаническая,Север-Юг,3.2,Геологическая,Север-Юг,3.6,398.477096,1493749.0
171,283.0,1942.0,44A AVTOZAVODSKAYA STR.   PERM        ,"Автозаводская улица, 44А, Пермь, Россия, 614113",58.006688,55.949331,-0.0068750715346186,Приволжский,Пермский край,,г Пермь,,Кировский р-н,2.0,,ул Автозаводская,44а,,,,,,,,,,,807.279609,1055397.0
172,284.0,1942.0,44A AVTOZAVODSKAYA STR.   PERM        ,"Автозаводская улица, 44А, Пермь, Россия, 614113",58.006688,55.949331,0.0300461246138357,Приволжский,Пермский край,,г Пермь,,Кировский р-н,2.0,,ул Автозаводская,44а,,,,,,,,,,,807.279609,1055397.0
1426,285.0,1942.0,44 KRAULYA                EKATERINBURG,"улица Крауля, 44, Екатеринбург, Свердловская область, Россия, 620109",56.830477,60.56023,0.0258406936349755,Уральский,Свердловская обл,,г Екатеринбург,,Верх-Исетский р-н,2.0,,ул Крауля,44,2.5,Площадь 1905 года,Север-Юг,2.5,Геологическая,Север-Юг,2.7,Динамо,Север-Юг,3.1,398.477096,1493749.0
2663,286.0,1942.0,88 LENINA AV.             PERM        ,"г Пермь, ул Ленина, д 88",58.005691,56.209806,0.0048632550836535,Приволжский,Пермский край,,г Пермь,,р-н Дзержинский,2.0,,ул Ленина,88,,,,,,,,,,,807.279609,1055397.0
3929,287.0,1942.0,82 SVOBODY STR.           CHELYABINSK ,"улица Свободы, 82, Челябинск, Россия, 454091",55.156194,61.412938,0.0390601563573325,Уральский,Челябинская обл,,г Челябинск,,,2.0,,ул Свободы,82,,,,,,,,,,,504.618068,1196680.0
3930,288.0,1942.0,82 SVOBODY STR.           CHELYABINSK ,"улица Свободы, 82, Челябинск, Россия, 454091",55.156194,61.412938,0.0296077329145269,Уральский,Челябинская обл,,г Челябинск,,,2.0,,ул Свободы,82,,,,,,,,,,,504.618068,1196680.0
5173,289.0,1942.0,62 KIROVA STR.            CHELYABINSK ,"улица Кирова, 62, Челябинск, Россия, 454084",55.174697,61.398044,-0.0592069365401171,Уральский,Челябинская обл,,г Челябинск,,,2.0,,ул Кирова,62,,,,,,,,,,,504.618068,1196680.0
2654,290.0,1942.0,19 KR.KOMANDIROV ST       EKATERINBURG,"улица Красных Командиров, 19, микрорайон Эльмаш, Орджоникидзевский район, Екатеринбург, Свердловская область, Россия, 620135",56.896848,60.625637,-0.0718845995132114,Уральский,Свердловская обл,,г Екатеринбург,,Орджоникидзевский р-н,2.0,,ул Красных командиров,19,0.8,Проспект Космонавтов,Север-Юг,0.8,Уралмаш,Север-Юг,1.2,Машиностроителей,Север-Юг,2.2,398.477096,1493749.0
5174,291.0,1942.0,83 LENINA AV.             MAGNITOGORSK,"проспект Ленина, 83, Магнитогорск, Челябинская область, Россия, 455044",53.402723,58.987622,-0.0389931645878002,Уральский,Челябинская обл,,г Магнитогорск,,,0.0,,пр-кт Ленина,83,,,,,,,,,,,339.746753,413253.0
2664,292.0,1942.0,86A SOVETSKAYA STR.       MAGNITOGORSK,"Советская улица, 86А, Магнитогорск, Челябинская область, Россия, 455030",53.397902,58.959783,-0.0543834041162368,Уральский,Челябинская обл,,г Магнитогорск,,,0.0,,ул Советская,86А,,,,,,,,,,,339.746753,413253.0
173,293.0,1942.0,172 KARLA MARKSA AV.      MAGNITOGORSK,"проспект Карла Маркса, 172, Магнитогорск, Челябинская область, Россия, 455049",53.37844,58.976384,0.023587453861983,Уральский,Челябинская обл,,г Магнитогорск,,,0.0,,пр-кт Карла Маркса,172,,,,,,,,,,,339.746753,413253.0
137,294.0,1022.0,ABB 53 A YULIUSA FUCHIKA  KAZAN       ,"улица Юлиуса Фучика, 53А, Казань, Республика Татарстан, Россия, 420141",55.743755,49.203549,-0.125979630070017,Приволжский,Респ Татарстан,,г Казань,,,2.0,,ул Юлиуса Фучика,53А,0.7,Проспект Победы,Центральная,0.7,Дубравная,Центральная,1.0,Горки,Центральная,2.1,635.900158,1257391.0
3904,295.0,1022.0,ABB 37A OKRUZHNOE SH.     ELABUGA     ,"Окружное шоссе, 37А, Елабуга, муниципальное образование город Елабуга, Республика Татарстан, Россия, 423606",55.777089,52.009535,-0.123648358114036,Приволжский,Респ Татарстан,Елабужский р-н,г Елабуга,,,1.0,,Окружное шоссе,37А,,,,,,,,,,,41.123374,73962.0
1398,296.0,1022.0,ABB 46-33 YAMASHEVA PR.   KAZAN       ,"проспект Ямашева, 46/33, Казань, Республика Татарстан, Россия, 420124",55.829578,49.118586,-0.0311716615346012,Приволжский,Респ Татарстан,,г Казань,,,2.0,,пр-кт Ямашева,46/33,1.9,Козья слобода,Центральная,1.9,Яшьлек (Юность),Центральная,2.2,Северный вокзал,Центральная,2.7,635.900158,1257391.0
1399,297.0,1022.0,ABB 46-33 YAMASHEVA PR.   KAZAN       ,"проспект Ямашева, 46/33, Казань, Республика Татарстан, Россия, 420124",55.829578,49.118586,-0.0518641193635749,Приволжский,Респ Татарстан,,г Казань,,,2.0,,пр-кт Ямашева,46/33,1.9,Козья слобода,Центральная,1.9,Яшьлек (Юность),Центральная,2.2,Северный вокзал,Центральная,2.7,635.900158,1257391.0
1400,298.0,1022.0,ABB 46-33 YAMASHEVA PR.   KAZAN       ,"проспект Ямашева, 46/33, Казань, Республика Татарстан, Россия, 420124",55.829578,49.118586,-0.0876145770962589,Приволжский,Респ Татарстан,,г Казань,,,2.0,,пр-кт Ямашева,46/33,1.9,Козья слобода,Центральная,1.9,Яшьлек (Юность),Центральная,2.2,Северный вокзал,Центральная,2.7,635.900158,1257391.0
1401,299.0,1022.0,ABB 11 CHISTOPOLSKAYA     KAZAN       ,"Чистопольская улица, 11, Казань, Республика Татарстан, Россия, 420066",55.820126,49.107474,-0.117380825768114,Приволжский,Респ Татарстан,,г Казань,,,2.0,,ул Чистопольская,11,0.7,Козья слобода,Центральная,0.7,Яшьлек (Юность),Центральная,1.8,Кремлевская,Центральная,2.8,635.900158,1257391.0
1389,300.0,1022.0,ABB 18 B POBEDY PR.       KAZAN       ,"проспект Победы, 18, Казань, Республика Татарстан, Россия, 420138",55.741105,49.195653,-0.0639258291648305,Приволжский,Респ Татарстан,,г Казань,,,2.0,,пр-кт Победы,18,1.3,Проспект Победы,Центральная,1.3,Дубравная,Центральная,1.5,Горки,Центральная,2.2,635.900158,1257391.0
3761,301.0,32.0,"VOLOKOLAMSKOE SH,1.1   KRASNOGORSK    ","Волоколамское шоссе, 1с1, Красногорск, Московская область, Россия, 143402",55.818321,37.339023,-0.125552757140822,Центральный,Московская обл,,г Красногорск,,,1.0,,Волоколамское шоссе,1,,,,,,,,,,,21.89364,175554.0
5018,302.0,32.0,"BOLSH. MORSKAYA,14A    S.PETERBURG    ","Большая Морская улица, 14, Санкт-Петербург, Россия, 191186",59.935958,30.317674,-0.124396583997997,Северо-Западный,г Санкт-Петербург,,г Санкт-Петербург,,,0.0,,ул Большая Морская,,0.1,Адмиралтейская,Фрунзенско-Приморская,0.1,Невский проспект,Московско-Петроградская,0.5,Гостиный двор,Невско-Василеостровская,0.9,2293.98675,5398064.0
1256,303.0,32.0,"PUSHKINA, 17           USSURIYSK      ","улица Пушкина, 17, Уссурийск, Приморский край, Россия, 692512",43.798912,131.94551,0.013922412957613,Дальневосточный,Приморский край,,г Уссурийск,,,0.0,,ул Пушкина,17,,,,,,,,,,,135.707144,173640.0
5019,305.0,32.0,"PR.100LET VLADIV,88    VLADIVOSTOK    ","г Владивосток, пр-кт 100-летия Владивостока, д 88",43.168786,131.915956,-0.0648287048341364,Дальневосточный,Приморский край,,г Владивосток,,р-н Советский,2.0,,пр-кт 100-летия Владивостока,88,,,,,,,,,,,329.591077,606561.0
2509,306.0,32.0,"OKEANSKIY PR., 131V    VLADIVOSTOK    ","Океанский проспект, 131В, Владивосток, Приморский край, Россия, 690002",43.133499,131.903128,-0.0993124936913647,Дальневосточный,Приморский край,,г Владивосток,,,2.0,,Океанский пр-кт,131в,,,,,,,,,,,329.591077,606561.0
1257,308.0,32.0,"MARKOVSKOGO, 45        KRASNOYARSK    ","улица Марковского, 45, Красноярск, Россия, 660049",56.015012,92.873484,-0.0153659819925736,Сибирский,Красноярский край,,г Красноярск,,Центральный р-н,2.0,,ул Марковского,45,,,,,,,,,,,0.0,1093771.0
1258,309.0,32.0,"VYBORGSKAYA NAB,61     ST.PETERBURG   ","Выборгская набережная, 61, Санкт-Петербург, Россия, 197342",59.980682,30.322471,-0.0823035760998919,Северо-Западный,г Санкт-Петербург,,г Санкт-Петербург,,,0.0,,Выборгская наб,,1.3,Лесная,Кировско-Выборгская,1.3,Чёрная речка,Московско-Петроградская,1.3,Петроградская,Московско-Петроградская,1.7,2293.98675,5398064.0
5020,310.0,32.0,"POKROVKA, 31.1         MOSCOW         ","улица Покровка, 31с1, Москва, Россия, 105062",55.7606952,37.6495895,-0.12129442313089,Центральный,г Москва,,,Центральный,Басманный р-н,0.0,,ул Покровка,31,0.6,Курская,Арбатско-Покровская,0.6,Курская,Кольцевая,0.8,Чкаловская,Люблинско-Дмитровская,0.8,2562.617022,12678079.0
5021,312.0,32.0,"VARSHAVSKOE, 1C.1.2    MOSCOW         ","Варшавское шоссе, 1с1, Москва, Россия, 117105",55.703987,37.626187,-0.0620400053633821,Центральный,г Москва,,г Москва,Южный,,0.0,,Варшавское шоссе,,0.7,Тульская,Серпуховско-Тимирязевская,0.7,ЗИЛ,МЦК,1.5,Верхние Котлы,МЦК,1.6,2562.617022,12678079.0
5,313.0,32.0,"RUSSKAYA, 16           VLADIVOSTOK    ","Русская улица, 16, Владивосток, Приморский край, Россия, 690039",43.16586,131.908212,-0.145001231474755,Дальневосточный,Приморский край,,г Владивосток,,Советский р-н,2.0,,ул Русская,16,,,,,,,,,,,329.591077,606561.0
5149,314.0,1022.0,ABB METRO AMETEVO         KAZAN       ,"метро Аметьево, Центральная линия, Казань, Республика Татарстан, Россия",55.7943584,49.1114975,-0.126762369846516,Приволжский,Респ Татарстан,,г Казань,,,2.0,,ул Центральная,,,,,,,,,,,,635.900158,1257391.0
1402,315.0,1022.0,ABB 47 K.MARKSA           CHEBOKSARY  ,"улица Карла Маркса, 47, Чебоксары, Чувашская Республика, Россия",56.134405,47.247889,-0.0983108059752769,Приволжский,Чувашская республика - Чувашия,,г Чебоксары,,,2.0,,ул К.Маркса,47,,,,,,,,,,,110.737463,497618.0
3894,316.0,1022.0,ABB 33 MAKSIMOVA          KAZAN       ,"улица Максимова, 33, Казань, Республика Татарстан, Россия, 420127",55.861186,49.086759,-0.0767454171115372,Приволжский,Респ Татарстан,,г Казань,,Авиастроительный р-н,2.0,,ул Максимова,33,0.6,Авиастроительная,Центральная,0.6,Северный вокзал,Центральная,2.2,Яшьлек (Юность),Центральная,3.7,635.900158,1257391.0
145,317.0,1022.0,ABB METRO ST.PL. TUKAYA   KAZAN       ,"метро Площадь Габдуллы Тукая, Центральная линия, Казань, Республика Татарстан, Россия",55.786065,49.124542,-0.0850376560508537,Приволжский,Респ Татарстан,,г Казань,,Вахитовский р-н,2.0,,ул Петербургская,1,,,,,,,,,,,635.900158,1257391.0
3905,318.0,1022.0,ABB 43 MIRA PR-KT         ELABUGA     ,"проспект Мира, 43, Елабуга, муниципальное образование город Елабуга, Республика Татарстан, Россия, 423600",55.754264,52.013946,-0.0242626165990127,Приволжский,Респ Татарстан,Елабужский р-н,г Елабуга,,,1.0,,пр-кт Мира,43,,,,,,,,,,,41.123374,73962.0
2640,319.0,1022.0,ABB 71A YAMASHEVA PR.     KAZAN       ,"проспект Ямашева, 71А, Казань, Республика Татарстан, Россия, 420126",55.826205,49.135439,-0.0450376847653918,Приволжский,Респ Татарстан,,г Казань,,,2.0,,пр-кт Ямашева,71а,2.5,Козья слобода,Центральная,2.5,Яшьлек (Юность),Центральная,3.3,Северный вокзал,Центральная,3.8,635.900158,1257391.0
146,322.0,1022.0,ABB 45 KH. MAVLYUTOVA     KAZAN       ,"улица Хусаина Мавлютова, 45, Казань, Республика Татарстан, Россия, 420101",55.744617,49.192832,-0.0275358485687054,Приволжский,Респ Татарстан,,г Казань,,Приволжский р-н,2.0,,ул Хусаина Мавлютова,45,1.1,Проспект Победы,Центральная,1.1,Дубравная,Центральная,1.7,Горки,Центральная,1.8,635.900158,1257391.0
147,323.0,1022.0,"ABB 71 KRAJNOVA           BAZ.MATAKI, ","улица Крайнова, 71, село Базарные Матаки, Алькеевский район, Республика Татарстан, Россия, 422870",54.904359,49.924034,-0.0625526290792645,Приволжский,Респ Татарстан,Алькеевский р-н,,,,1.0,село Базарные Матаки,ул Крайнова,71,,,,,,,,,,,68012.940556,3902888.0
3906,324.0,1022.0,ABB 6 SPARTAKOVSKAYA      KAZAN       ,"Спартаковская улица, 6, Казань, Республика Татарстан, Россия, 420107",55.778866,49.129573,-0.0532111009650682,Приволжский,Респ Татарстан,,г Казань,,,2.0,,ул Спартаковская,6,0.8,Суконная слобода,Центральная,0.8,Площадь Тукая,Центральная,1.0,Кремлевская,Центральная,2.4,635.900158,1257391.0
2641,325.0,1022.0,ABB 99 GAGARINA           SAMARA      ,"улица Гагарина, 99, Самара, Россия",53.200226,50.198954,-0.101009427464141,Приволжский,Самарская обл,,г Самара,,Советский р-н,2.0,,ул Гагарина,99,0.1,Спортивная,Первая,0.1,Советская,Первая,1.5,Гагаринская,Первая,1.5,543.719859,1156659.0
5138,327.0,1022.0,ABB 4 M. VAKHITOVA        KAZAN       ,"переулок Вахитова, Казань, Республика Татарстан, Россия",55.7625,49.116493,-0.0850376560508537,Приволжский,Респ Татарстан,,г Казань,,Приволжский р-н,2.0,,ул Тимер Юл,,,,,,,,,,,,635.900158,1257391.0
2642,328.0,1022.0,ABB 10 MODELNAYA          KAZAN       ,"Модельная улица, 10, Казань, Республика Татарстан, Россия, 420054",55.748822,49.141799,-0.0998287626606413,Приволжский,Респ Татарстан,,г Казань,,Приволжский р-н,2.0,,ул Модельная,10,2.3,Аметьево,Центральная,2.3,Суконная слобода,Центральная,3.1,Горки,Центральная,3.3,635.900158,1257391.0
148,329.0,1022.0,ABB 2 LUSHNIKOVA          KAZAN       ,"улица Лушникова, 2, Казань, Республика Татарстан, Россия, 420034",55.818796,49.082348,-0.119007140407335,Приволжский,Респ Татарстан,,г Казань,,,2.0,,ул Лушникова,2,1.0,Козья слобода,Центральная,1.0,Яшьлек (Юность),Центральная,1.0,Северный вокзал,Центральная,2.6,635.900158,1257391.0
149,330.0,1022.0,ABB 34 ENTUZIASTOV        CHEBOKSARY  ,"улица Энтузиастов, 34, Чебоксары, Чувашская Республика, Россия, 428010",56.118791,47.183606,-0.105078490525171,Приволжский,Чувашская республика - Чувашия,,г Чебоксары,,,2.0,,ул Энтузиастов,34,,,,,,,,,,,110.737463,497618.0
3907,331.0,1022.0,ABB 48 KARBYSHEVA         KAZAN       ,"улица Карбышева, 48, Казань, Республика Татарстан, Россия, 420087",55.760905,49.177471,-0.0802485617478279,Приволжский,Респ Татарстан,,г Казань,,,2.0,,ул Карбышева,48,0.8,Горки,Центральная,0.8,Аметьево,Центральная,0.9,Проспект Победы,Центральная,2.2,635.900158,1257391.0
1259,332.0,32.0,"BRATEV LUKANINYKH, 1   KALUGA         ","улица Братьев Луканиных, 1, Калуга, Россия, 248033",54.496191,36.182577,-0.0326992751715133,Центральный,Калужская обл,,г Калуга,,,2.0,,ул Братьев Луканиных,1,,,,,,,,,,,166.765109,332039.0
6,335.0,32.0,"SHUKHOVA, 14           MOSCOW         ","улица Шухова, 14, Москва, Россия, 115162",55.716859,37.613063,-0.0246822352357643,Центральный,г Москва,,г Москва,Южный,,0.0,,ул Шухова,14,0.4,Шаболовская,Калужско-Рижская,0.4,Тульская,Серпуховско-Тимирязевская,1.0,Серпуховская,Серпуховско-Тимирязевская,1.3,2562.617022,12678079.0
2643,339.0,1022.0,ABB 16A VAKHITOVA PR.     NAB.CHELNY  ,"проспект Вахитова, 16А, Набережные Челны, Республика Татарстан, Россия, 423816",55.746603,52.424961,-0.085602128463501,Приволжский,Респ Татарстан,,г Набережные Челны,,,0.0,,пр-кт им Вахитова,16А,,,,,,,,,,,171.094508,533839.0
3908,342.0,1022.0,ABB 125 SH.USMANOVA       NAB.CHELNY  ,"улица Шамиля Усманова, 125, Набережные Челны, Республика Татарстан, Россия, 423828",55.771226,52.430944,-0.0800042191099653,Приволжский,Респ Татарстан,,г Набережные Челны,,,0.0,,ул Шамиля Усманова,125,,,,,,,,,,,171.094508,533839.0
5150,343.0,1022.0,ABB 49-22A DOMOSTROIT     NAB.CHELNY  ,"деревня Тябердино-Челны, Рыбно-Слободский район, Республика Татарстан, Россия",55.646289,50.656448,-0.0680299299207646,Приволжский,Респ Татарстан,Рыбно-Слободский р-н,,,,0.0,деревня Тябердино-Челны,,,,,,,,,,,,,68012.940556,3902888.0
3909,344.0,1022.0,ABB 51 SYUYUMBIKE PR.     NAB.CHELNY  ,"проспект Сююмбике, 51, Набережные Челны, Республика Татарстан, Россия",55.748822,52.400392,-0.145001231474755,Приволжский,Респ Татарстан,,г Набережные Челны,,,0.0,,ул Пушкина,4А,,,,,,,,,,,171.094508,533839.0
2644,345.0,1022.0,ABB 47A-1 M.DZHALILYA     NAB.CHELNY  ,"проспект Мусы Джалиля, 47, поселок ГЭС, Набережные Челны, Республика Татарстан, Россия, 423802",55.694114,52.308082,-0.136579241801474,Приволжский,Респ Татарстан,,г Набережные Челны,,,0.0,,пр-кт им Мусы Джалиля,47,,,,,,,,,,,171.094508,533839.0
5151,346.0,1022.0,ABB 52 20A MOSKOVSKIJ PR  NAB.CHELNY  ,"Московский проспект, 142, Набережные Челны, Республика Татарстан, Россия, 423827",55.749643,52.44512,-0.100464964785768,Приволжский,Респ Татарстан,,г Набережные Челны,,,0.0,,Московский пр-кт,142,,,,,,,,,,,171.094508,533839.0
150,347.0,1022.0,ABB 6B NAB-CHELNINSKIJ    NAB.CHELNY  ,"Респ Татарстан, г Набережные Челны",55.7434619,52.3959165,-0.145001231474755,Приволжский,Респ Татарстан,,г Набережные Челны,,,0.0,,,,,,,,,,,,,,171.094508,533839.0
1403,350.0,1022.0,ABB 120 CHULMAN           NAB.CHELNY  ,"проспект Чулман, 120, Набережные Челны, Республика Татарстан, Россия, 423826",55.773327,52.425518,-0.0985633834005003,Приволжский,Респ Татарстан,,г Набережные Челны,,,0.0,,пр-кт Чулман,120,,,,,,,,,,,171.094508,533839.0
5152,351.0,1022.0,ABB 33 A ADORATSKOGO      KAZAN       ,"улица Адоратского, 33А, Казань, Республика Татарстан, Россия, 420132",55.839117,49.14638,-0.030289797470722,Приволжский,Респ Татарстан,,г Казань,,Ново-Савиновский р-н,2.0,,ул Адоратского,33А,3.9,Козья слобода,Центральная,3.9,Северный вокзал,Центральная,4.0,Яшьлек (Юность),Центральная,4.2,635.900158,1257391.0
2645,352.0,1022.0,ABB 54 K4 YAMASHEVA PR.   KAZAN       ,"проспект Ямашева, 54к4, Казань, Республика Татарстан, Россия, 420103",55.827727,49.131001,-0.113193131016822,Приволжский,Респ Татарстан,,г Казань,,,2.0,,пр-кт Ямашева,54,2.4,Козья слобода,Центральная,2.4,Яшьлек (Юность),Центральная,3.0,Северный вокзал,Центральная,3.4,635.900158,1257391.0
5153,353.0,1022.0,ABB 18A GIDROSTROITELEJ   NAB.CHELNY  ,"улица Гидростроителей, 18А, поселок ГЭС, Набережные Челны, Республика Татарстан, Россия, 423800",55.686477,52.294912,-0.118761681009736,Приволжский,Респ Татарстан,,г Набережные Челны,,,0.0,,ул Гидростроителей,18А,,,,,,,,,,,171.094508,533839.0
151,354.0,1022.0,ABB 36A MAMADYSHSKIJ      KAZAN       ,"Мамадышский тракт, 36, Казань, Республика Татарстан, Россия",55.795317,49.229447,-0.107210778508708,Приволжский,Респ Татарстан,,г Казань,,Советский р-н,2.0,,ул Мамадышский Тракт,36,4.6,Горки,Центральная,4.6,,,,,,,635.900158,1257391.0
5154,355.0,1022.0,"ABB 138A,K2 ORENBURGSKIJ  KAZAN       ","Оренбургский тракт, 138Ак2, Казань, Республика Татарстан, Россия",55.7331131,49.1835227,-0.111330239930764,Приволжский,Респ Татарстан,,г Казань,,Приволжский р-н,2.0,,ул Оренбургский Тракт,138а,2.4,Проспект Победы,Центральная,2.4,Дубравная,Центральная,2.5,Горки,Центральная,3.1,635.900158,1257391.0
3910,356.0,1022.0,ABB 33 40 LET POBEDY      CHISTOPOL   ,"улица 40 лет Победы, 33, Чистополь, Республика Татарстан, Россия, 422985",55.352485,50.641222,-0.0958351838406467,Приволжский,Респ Татарстан,Чистопольский р-н,г Чистополь,,,1.0,,ул 40 лет Победы,33,,,,,,,,,,,29.52625,59446.0
3911,357.0,1022.0,ABB 72 YULIUSA FUCHIKA    KAZAN       ,"улица Юлиуса Фучика, 72, Казань, Республика Татарстан, Россия, 420141",55.755844,49.232358,-0.0513566619711028,Приволжский,Респ Татарстан,,г Казань,,,2.0,,ул Юлиуса Фучика,72,1.6,Дубравная,Центральная,1.6,Проспект Победы,Центральная,1.7,Горки,Центральная,2.7,635.900158,1257391.0
7,358.0,32.0,"ADMIRALA FOKINA, 25    VLADIVOSTOK    ","улица Адмирала Фокина, 25, Владивосток, Приморский край, Россия, 690091",43.117174,131.885503,-0.133425883496232,Дальневосточный,Приморский край,,г Владивосток,,,2.0,,ул Адмирала Фокина,25,,,,,,,,,,,329.591077,606561.0
3762,360.0,32.0,"PR.T POBEDY, 2.2       PETROPAVLOVSK  ","проспект Победы, 2/2, Петропавловск-Камчатский, Камчатский край, Россия, 683023",53.069613,158.616698,-0.0225693230572344,Дальневосточный,Камчатский край,,г Петропавловск-Камчатский,,,2.0,,ул Кавказская,40,,,,,,,,,,,362.374024,179586.0
3763,361.0,32.0,"KHOROSHEVSKOE SHOSSE,32MOSCOW         ","Хорошёвское шоссе, 32, Москва, Россия, 123007",55.774781,37.540524,0.0854315116727284,Центральный,г Москва,,г Москва,Северный,Хорошевский р-н,0.0,,Хорошёвское шоссе,,0.3,Беговая,Таганско-Краснопресненская,0.3,Беговая,Белорусско-Савеловский,0.6,Хорошевская,Большая кольцевая линия,1.3,2562.617022,12678079.0
3895,362.0,1022.0,ABB 27 LENINGRADSKAYA     KAZAN       ,"Ленинградская улица, 27, Казань, Республика Татарстан, Россия, 420037",55.863247,49.084908,-0.0669408436863903,Приволжский,Респ Татарстан,,г Казань,,Авиастроительный р-н,2.0,,ул Ленинградская,27,0.8,Авиастроительная,Центральная,0.8,Северный вокзал,Центральная,2.4,Яшьлек (Юность),Центральная,3.9,635.900158,1257391.0
3912,363.0,1022.0,ABB 132 BEBELYA           CHISTOPOL   ,"улица Бебеля, 132, Чистополь, Республика Татарстан, Россия, 422980",55.369807,50.640503,-0.11132013060223,Приволжский,Респ Татарстан,Чистопольский р-н,г Чистополь,,,1.0,,ул Бебеля,132,,,,,,,,,,,29.52625,59446.0
1404,364.0,1022.0,ABB 65 YASHLEK PR.        NAB.CHELNY  ,"проспект Яшьлек, 64, Набережные Челны, Республика Татарстан, Россия",55.762135,52.447033,-0.145001231474755,Приволжский,Респ Татарстан,,г Набережные Челны,,,0.0,,пр-кт Яшьлек,,,,,,,,,,,,171.094508,533839.0
152,365.0,1022.0,ABB 50A POBEDY PR.        KAZAN       ,"проспект Победы, 50А, Казань, Республика Татарстан, Россия, 420138",55.748919,49.207573,-0.0699124796775785,Приволжский,Респ Татарстан,,г Казань,,,2.0,,пр-кт Победы,50А,0.1,Проспект Победы,Центральная,0.1,Дубравная,Центральная,0.9,Горки,Центральная,1.7,635.900158,1257391.0
1405,366.0,1022.0,ABB 16A VAKHITOVA         NAB.CHELNY  ,"проспект Вахитова, 16А, Набережные Челны, Республика Татарстан, Россия, 423816",55.746603,52.424961,-0.123853693839015,Приволжский,Респ Татарстан,,г Набережные Челны,,,0.0,,пр-кт им Вахитова,16А,,,,,,,,,,,171.094508,533839.0
2646,367.0,1022.0,ABB 66 ZALESNAYA          KAZAN       ,"Залесная улица, 66, Казань, Республика Татарстан, Россия, 420076",55.850403,48.895103,-0.0414129627845493,Приволжский,Респ Татарстан,,г Казань,,Кировский р-н,2.0,,ул Залесная,66,,,,,,,,,,,635.900158,1257391.0
1406,368.0,1022.0,ABB 8 ERSHOVA             KAZAN       ,"улица Николая Ершова, 8, Казань, Республика Татарстан, Россия, 420061",55.792033,49.154258,-0.0943547485711637,Приволжский,Респ Татарстан,,г Казань,,,2.0,,ул Николая Ершова,8,1.8,Суконная слобода,Центральная,1.8,Площадь Тукая,Центральная,2.1,Аметьево,Центральная,3.0,635.900158,1257391.0
153,369.0,1022.0,ABB 77 ZORGE              KAZAN       ,"улица Рихарда Зорге, 77, Казань, Республика Татарстан, Россия, 420110",55.747627,49.214338,-0.0756281807836549,Приволжский,Респ Татарстан,,г Казань,,,2.0,,ул Рихарда Зорге,77,0.5,Проспект Победы,Центральная,0.5,Дубравная,Центральная,0.5,Горки,Центральная,2.1,635.900158,1257391.0
154,370.0,1022.0,ABB 65 SHAMILYA USMANOVA  NAB.CHELNY  ,"улица Шамиля Усманова, 65, Набережные Челны, Республика Татарстан, Россия, 423831",55.749268,52.391697,-0.0985159317290801,Приволжский,Респ Татарстан,,г Набережные Челны,,,0.0,,ул Шамиля Усманова,65,,,,,,,,,,,171.094508,533839.0
5139,371.0,1022.0,ABB 16 GARIFA AKHUNOVA    KAZAN       ,"улица Гарифа Ахунова, 16, Казань, Республика Татарстан, Россия, 420064",55.72814,49.175854,-0.0769174387674445,Приволжский,Респ Татарстан,,г Казань,,Приволжский р-н,2.0,,ул Гарифа Ахунова,16,,,,,,,,,,,635.900158,1257391.0
155,372.0,1022.0,"ABB 168 B. KRASNAYA       VYS.GORA,   ","Большая Красная улица, 168, село Высокая Гора, Высокогорский район, Республика Татарстан, Россия, 422701",55.918933,49.312991,-0.0308774824841193,Приволжский,Респ Татарстан,Высокогорский р-н,,,,0.0,село Высокая Гора,ул Б.Красная,168,,,,,,,,,,,68012.940556,3902888.0
5403,373.0,3185.5,"Betankura ul., 1          N. Novgorod ","улица Бетанкура, 1, Нижний Новгород, Россия, 603070",56.339397,43.956211,-0.116146421363781,Приволжский,Нижегородская обл,,г Нижний Новгород,,Канавинский р-н,2.0,,ул Бетанкура,1,0.6,Стрелка,Сормовско-Мещерская,0.6,Московская,Сормовско-Мещерская,1.9,Московская,Автозаводская,2.1,316.710804,1252236.0
156,375.0,1022.0,ABB 32 LENINGRADSKAYA     KAZAN       ,"Ленинградская улица, 32, Казань, Республика Татарстан, Россия, 420037",55.866793,49.088214,-0.0899353745453752,Приволжский,Респ Татарстан,,г Казань,,Авиастроительный р-н,2.0,,ул Ленинградская,32,1.2,Авиастроительная,Центральная,1.2,Северный вокзал,Центральная,2.8,Яшьлек (Юность),Центральная,4.3,635.900158,1257391.0
1407,376.0,1022.0,ABB 9 MINSKAYA            KAZAN       ,"Минская улица, 9, Казань, Республика Татарстан, Россия, 420140",55.773449,49.230408,-0.100910009923709,Приволжский,Респ Татарстан,,г Казань,,Советский р-н,2.0,,ул Минская,,2.9,Горки,Центральная,2.9,Проспект Победы,Центральная,3.0,Дубравная,Центральная,3.4,635.900158,1257391.0
157,377.0,1022.0,ABB 113A LENINA           ALMETEVSK   ,"улица Ленина, 113А, Альметьевск, Республика Татарстан, Россия, 423461",54.898178,52.272481,-0.0655204796020988,Приволжский,Респ Татарстан,Альметьевский р-н,г Альметьевск,,,1.0,,ул Ленина,,,,,,,,,,,,0.0,158429.0
2647,379.0,1022.0,ABB 13 KLARY CETKIN       KAZAN       ,"улица Клары Цеткин, 13, Казань, Республика Татарстан, Россия, 420030",55.798677,49.05972,-0.0408195772619705,Приволжский,Респ Татарстан,,г Казань,,Кировский р-н,2.0,,ул Клары Цеткин,13,2.9,Кремлевская,Центральная,2.9,Козья слобода,Центральная,3.2,Яшьлек (Юность),Центральная,3.5,635.900158,1257391.0
2648,380.0,1022.0,ABB 110V PAVLYUKHINA      KAZAN       ,"улица Павлюхина, 110, Казань, Республика Татарстан, Россия, 420059",55.768532,49.145401,-0.145001231474755,Приволжский,Респ Татарстан,,г Казань,,,2.0,,ул Павлюхина,110,1.0,Суконная слобода,Центральная,1.0,Аметьево,Центральная,1.3,Площадь Тукая,Центральная,2.5,635.900158,1257391.0
1408,381.0,1022.0,ABB 13 KAZAKOVA           ALEKSEEVSKOE,"улица Казакова, 13, поселок городского типа Алексеевское, Алексеевский район, Республика Татарстан, Россия, 422900",55.302007,50.108889,-0.0772106608897258,Приволжский,Респ Татарстан,Алексеевский р-н,,,,1.0,пгт Алексеевское,ул Казакова,13,,,,,,,,,,,68012.940556,3902888.0
5140,382.0,1022.0,ABB 100 RIKHARDA ZORGE    KAZAN       ,"улица Рихарда Зорге, 100, Казань, Республика Татарстан, Россия, 420139",55.741733,49.221183,-0.0812205441774127,Приволжский,Респ Татарстан,,г Казань,,,2.0,,ул Рихарда Зорге,100,0.2,Дубравная,Центральная,0.2,Проспект Победы,Центральная,1.3,Горки,Центральная,2.9,635.900158,1257391.0
1409,383.0,1022.0,ABB 11 USPENSKAYA         JOSHKAR-OLA ,"Успенская улица, 11, Йошкар-Ола, Республика Марий Эл, Россия, 424006",56.629169,47.884804,-0.109016590645046,Приволжский,Респ Марий Эл,,г Йошкар-Ола,,,2.0,,ул Успенская,11,,,,,,,,,,,87.299587,274715.0
2871,385.0,3185.5,"VerkhnePecherskaya ul., 1 N. Novgorod ","Верхнепечёрская улица, 1, Нижний Новгород, Россия",56.299056,44.066425,-0.125446583391955,Приволжский,Нижегородская обл,,г Нижний Новгород,,Нижегородский р-н,2.0,,ул Верхне-Печерская,1,4.7,Горьковская,Автозаводская,4.7,,,,,,,316.710804,1252236.0
1439,386.0,1942.0,NIKOLAYA OTRADY 1         VOLGOGRAD   ,"улица Николая Отрады, 1, Волгоград, Россия, 400033",48.818515,44.629121,-0.0061375108872998,Южный,Волгоградская обл,,г Волгоград,,Тракторозаводский р-н,2.0,,ул им. Николая Отрады,1,,,,,,,,,,,861.555578,1008998.0
5190,387.0,1942.0,2 K.MARKSA STR            IZHEVSK     ,"улица Карла Маркса, 2, Ижевск, Удмуртская Республика, Россия, 426032",56.820833,53.208903,-0.0740725931413611,Приволжский,Удмуртская Респ,,г Ижевск,,,2.0,,ул Карла Маркса,2,,,,,,,,,,,318.372702,648146.0
2670,388.0,1942.0,199 SHIROTNAYA STR.       TYUMEN      ,"Широтная улица, 199, Тюмень, Россия, 625053",57.096367,65.62486,0.0483587929882259,Уральский,Тюменская обл,,г Тюмень,,,2.0,,ул Широтная,199,,,,,,,,,,,472.867907,807271.0
1440,389.0,1942.0,3A OPTIKOV STR.           S.-PETERBURG,"улица Оптиков, 3, Санкт-Петербург, Россия, 197372",59.997145,30.248962,0.0265916094140214,Северо-Западный,г Санкт-Петербург,,г Санкт-Петербург,,Приморский р-н,0.0,,ул Оптиков,,0.9,Старая деревня,Фрунзенско-Приморская,0.9,Комендантский проспект,Фрунзенско-Приморская,1.4,Пионерская,Московско-Петроградская,2.7,2293.98675,5398064.0
186,390.0,1942.0,11 KATUKOVA STR.          LIPETSK     ,"улица Катукова, 11, Липецк, Россия, 398004",52.580418,39.527436,0.0700039702466421,Центральный,Липецкая обл,,г Липецк,,Октябрьский округ,2.0,,ул Катукова,11,,,,,,,,,,,233.131376,508573.0
3945,392.0,1942.0,83 LENINA                 USOLIE-SIBIR,"улица Ленина, 83, Усолье-Сибирское, Иркутская область, Россия",52.756593,103.639721,0.0315416617764921,Сибирский,Иркутская обл,,г Усолье-Сибирское,,,0.0,,ул Ленина,83,,,,,,,,,,,79.008724,76047.0
1441,393.0,1942.0,5 POBEDY SQ.              LIPETSK     ,"площадь Победы, 5, Липецк, Россия, 398024",52.603187,39.571929,-0.0160672794325614,Центральный,Липецкая обл,,г Липецк,,,2.0,,пл Победы,5,,,,,,,,,,,233.131376,508573.0
1442,396.0,1942.0,90/1 LERMONTOVA STR       IRKUTSK     ,"улица Лермонтова, 90/1, Иркутск, Россия, 664074",52.263012,104.25928,-0.0323120417389288,Сибирский,Иркутская обл,,г Иркутск,,Свердловский р-н,2.0,,ул Лермонтова,,,,,,,,,,,,265.295695,623562.0
1443,398.0,1942.0,7 STROITELEY AVE          KUDROVO     ,"проспект Строителей, 7, Кудрово, Заневское городское поселение, Всеволожский район, Ленинградская область, Россия, 188691",59.917222,30.521996,-0.006070487885358,Северо-Западный,Ленинградская обл,Всеволожский р-н,г Кудрово,,,0.0,мкр Новый Оккервиль,пр-кт Строителей,,,,,,,,,,,,4.495937,41102.0
5191,399.0,1942.0,41A GRAZHDANSKIY AV.      S.-PETERBURG,"г Санкт-Петербург, пр-кт Гражданский, д 41 литера а",60.0113666,30.3979543,-0.0198535774633511,Северо-Западный,г Санкт-Петербург,,,,р-н Калининский,0.0,,пр-кт Гражданский,41,0.2,,,,,,,,,,2293.98675,5398064.0
5192,401.0,1942.0,25 INDUSTRIALNIY AV.      S.-PETERBURG,"Индустриальный проспект, 25, Санкт-Петербург, Россия, 195298",59.947023,30.477466,-0.0452874063701199,Северо-Западный,г Санкт-Петербург,,г Санкт-Петербург,,Красногвардейский р-н,0.0,,Индустриальный пр-кт,,2.7,Ладожская,Правобережная,2.7,Проспект Большевиков,Правобережная,3.1,Новочеркасская,Правобережная,4.2,2293.98675,5398064.0
3946,402.0,1942.0,33 KOMENDANTSKIY AV.      S.-PETERBURG,"г Санкт-Петербург, пр-кт Комендантский, д 33",60.0215048,30.2439658,-0.0093177076407743,Северо-Западный,г Санкт-Петербург,,,,р-н Приморский,0.0,,пр-кт Комендантский,33,1.7,,,,,,,,,,2293.98675,5398064.0
5193,403.0,1942.0,305 OBUKHOVSKOY OBORONY A S.-PETERBURG,"г Санкт-Петербург, пр-кт Обуховской Обороны, д 305",59.8408812,30.4839078,0.0592919661043001,Северо-Западный,г Санкт-Петербург,,,,р-н Невский,0.0,,пр-кт Обуховской Обороны,305,1.5,,,,,,,,,,2293.98675,5398064.0
5194,405.0,1942.0,64 SCHORSA STR.           BELGOROD    ,"улица Щорса, 64, Белгород, Россия",50.552504,36.569005,0.0416825718225698,Центральный,Белгородская обл,,г Белгород,,,2.0,,ул Щорса,,,,,,,,,,,,160.45006,394142.0
1444,406.0,1942.0,64 ARMII                  VOLGOGRAD   ,"улица 64-й Армии, 58, Волгоград, Россия, 400079",48.632259,44.429506,-0.0142804353339215,Южный,Волгоградская обл,,г Волгоград,,Кировский р-н,2.0,,ул 64-й Армии,58,,,,,,,,,,,861.555578,1008998.0
5195,407.0,1942.0,100B GAGARINA STR.        LIPETSK     ,"улица Гагарина, 100, Липецк, Россия, 398016",52.621653,39.576466,-0.0602655799300069,Центральный,Липецкая обл,,г Липецк,,,2.0,,ул Гагарина,100,,,,,,,,,,,233.131376,508573.0
3947,408.0,1942.0,2/1 EFIMOVA               OSINNIKI    ,"улица Ефимова, 2/1, Осинники, Кемеровская область, Россия, 652815",53.59132,87.332272,-0.0388119878097744,Сибирский,Кемеровская область - Кузбасс,,г Осинники,,,0.0,,ул Ефимова,2/1,,,,,,,,,,,38.245719,41673.0
187,411.0,1942.0,10 BABUSHKINA STR.        SANKT-PETERB,"улица Бабушкина, 10, Санкт-Петербург, Россия, 192029",59.89672,30.42345,0.0261850662216676,Северо-Западный,г Санкт-Петербург,,г Санкт-Петербург,,Невский р-н,0.0,,ул Бабушкина,,0.0,Елизаровская,Невско-Василеостровская,0.0,Ломоносовская,Невско-Василеостровская,2.4,Бухарестская,Фрунзенско-Приморская,3.4,2293.98675,5398064.0
5196,412.0,1942.0,84B POCHTOVAYA STR        BELGOROD    ,"Почтовая улица, 84, Белгород, Россия, 308013",50.585704,36.664711,-0.145001231474755,Центральный,Белгородская обл,,г Белгород,,,2.0,,ул Почтовая,84,,,,,,,,,,,160.45006,394142.0
1445,417.0,1942.0,308 KIROVA AVE            SAMARA      ,"проспект Кирова, 308, Самара, Россия, 443125",53.251908,50.218573,0.0827827518274322,Приволжский,Самарская обл,,г Самара,,,2.0,,пр-кт Кирова,308,4.8,Безымянка,Первая,4.8,,,,,,,543.719859,1156659.0
3948,418.0,1942.0,63 9-MAYA STR.            KRASNOYARSK ,"улица 9 Мая, 63, Красноярск, Россия, 660098",56.056282,92.91116,-0.0586157202484386,Сибирский,Красноярский край,,г Красноярск,,Советский р-н,2.0,,ул 9 Мая,63,,,,,,,,,,,0.0,1093771.0
3949,419.0,1942.0,52 MIRA AV.               KRASNOYARSK ,"проспект Мира, 52, Красноярск, Россия, 660049",56.012672,92.878596,0.0424036760103639,Сибирский,Красноярский край,,г Красноярск,,,2.0,,пр-кт Мира,52,,,,,,,,,,,0.0,1093771.0
1446,421.0,1942.0,14 KOPYLOVA STR.          KAZAN       ,"улица Копылова, 14, Казань, Республика Татарстан, Россия, 420127",55.857882,49.085789,-0.0359291450031747,Приволжский,Респ Татарстан,,г Казань,,Авиастроительный р-н,2.0,,ул Копылова,14,0.2,Авиастроительная,Центральная,0.2,Северный вокзал,Центральная,1.8,Яшьлек (Юность),Центральная,3.3,635.900158,1257391.0
3950,423.0,1942.0,NIZHEGORODSKAYA OBL       SAVASLEYKA  ,"село Саваслейка, городской округ Кулебаки, Нижегородская область, Россия",55.458634,42.323442,-0.0463158471870601,Приволжский,Нижегородская обл,,г Кулебаки,,,1.0,,ул Советская,,,,,,,,,,,,19.918824,31794.0
2671,424.0,1942.0,3 KOMMUNAROV              PETRA-DUBRAV,"улица Коммунаров, 3, посёлок городского типа Петра Дубрава, Волжский район, Самарская область, Россия, 443546",53.300315,50.367676,-0.0550035929187169,Приволжский,Самарская обл,Волжский р-н,,,,0.0,пгт Петра Дубрава,ул Коммунаров,3,,,,,,,,,,,53580.916689,3193514.0
3951,426.0,1942.0,65 GAZOVIKOV STR          TYUMEN      ,"улица Газовиков, 65, Тюмень, Россия, 625022",57.171591,65.557388,0.0125465496361093,Уральский,Тюменская обл,,г Тюмень,,,2.0,,ул Газовиков,65,,,,,,,,,,,472.867907,807271.0
188,427.0,1942.0,2-6 22-Y MKRN.            NAZAROVO    ,"22-й микрорайон, 2, Назарово, Красноярский край, Россия",56.0060986,90.4518243,-0.0730349103495651,Сибирский,Красноярский край,,г Назарово,,,0.0,мкр 22-й,,,,,,,,,,,,,86.425641,49748.0
3952,428.0,1942.0,55/1 GIMNAZICHESKAYA STR. KRASNODAR   ,"р.Бейсуг, Кавказский район, Краснодарский край, Россия",45.476084,40.393277,-0.0498819385356568,,,,,,,,,,,,,,,,,,,,,,
3953,429.0,1942.0,10 KOLKHOZNAYA STR.       USSURIYSK   ,"Колхозная улица, 10, Уссурийск, Приморский край, Россия, 692502",43.76378,132.011249,-0.145001231474755,Дальневосточный,Приморский край,,г Уссурийск,,,0.0,,ул Колхозная,10,,,,,,,,,,,135.707144,173640.0
2672,430.0,1942.0,4 MOSKATOVA STR           TAGANROG    ,"улица Москатова, 4, Таганрог, Ростовская область, Россия, 347924",47.263316,38.92004,-0.0775161057874957,Южный,Ростовская обл,,г Таганрог,,,0.0,,ул Москатова,4,,,,,,,,,,,85.530595,248643.0
189,431.0,1942.0,3 VZLETNAYA STR.          KRASNOYARSK ,"автодорога Красноярск-Железногорск, 20 км, Берёзовский район, Красноярский край, Россия",56.12978,93.332317,-0.110160567944237,,,,,,,,,,,,,,,,,,,,,,
190,434.0,1942.0,55B KRASNAYA STR.         NOVOVELICHKO,"Красная улица, 55Б, станица Нововеличковская, Динской район, Краснодарский край, Россия",45.275511,38.839919,0.0618753662075843,Южный,Краснодарский край,Динской р-н,,,,0.0,ст-ца Нововеличковская,ул Красная,55Б,,,,,,,,,,,14.639369,9169.0
3954,435.0,1942.0,16 VORONOVA STR.          KRASNOYARSK ,"улица Воронова, 16, микрорайон Зелёная Роща, Советский район, Красноярск, Россия, 660131",56.058805,92.953812,0.0613545980699189,Сибирский,Красноярский край,,г Красноярск,,Советский р-н,2.0,,ул Воронова,16,,,,,,,,,,,0.0,1093771.0
2673,436.0,1942.0,41 KARLA MARKSA STR.      KHABAROVSK  ,"улица Карла Маркса, 41, Хабаровск, Россия, 680000",48.482744,135.073534,-0.0740330575875317,Дальневосточный,Хабаровский край,,г Хабаровск,,Железнодорожный р-н,2.0,,ул Карла Маркса,41,,,,,,,,,,,389.085968,616372.0
1447,437.0,1942.0,2 KRAINYAYA STR.          KRASNOYARSK ,"автодорога Красноярск-Железногорск, 20 км, Берёзовский район, Красноярский край, Россия",56.12978,93.332317,0.0239048297887854,,,,,,,,,,,,,,,,,,,,,,
191,438.0,1942.0,103/2 KUBOVAYA STR.       NOVOSIBIRSK ,"Кубовая улица, 103/2, Новосибирск, Россия, 630066",55.128748,82.898601,0.0007007466601096,Сибирский,Новосибирская обл,,г Новосибирск,,Заельцовский р-н,2.0,,ул Кубовая,103/2,,,,,,,,,,,480.886137,1625631.0
192,440.0,1942.0,113 MIRA AV.              TOGLIATTI   ,"Самарская обл, г Тольятти, ул Мира, влд 113",53.5107844,49.4444678,-0.0829561645280578,Приволжский,Самарская обл,,г Тольятти,,р-н Центральный,0.0,,ул Мира,113,,,,,,,,,,,285.636733,699429.0
193,442.0,1942.0,30A MOSKOVSKIY AV.        TOGLIATTI   ,"Московский проспект, 30, Тольятти, Самарская область, Россия, 445026",53.523593,49.256711,-0.000529944903701,Приволжский,Самарская обл,,г Тольятти,,Автозаводский р-н,0.0,,Московский пр-кт,30,,,,,,,,,,,285.636733,699429.0
3955,443.0,1942.0,26A SHLYUZOVAYA STR.      NOVOSIBIRSK ,"Шлюзовая улица, 26А, микрорайон Шлюз, Советский район, Новосибирск, Россия, 630058",54.852537,83.045493,-0.102098794095142,Сибирский,Новосибирская обл,,г Новосибирск,,Советский р-н,2.0,,ул Шлюзовая,26а,,,,,,,,,,,480.886137,1625631.0
5197,444.0,1942.0,122/126 SHELKOVICHNAYA    SARATOV     ,"Шелковичная улица, 122/126, Саратов, Россия, 410071",51.537977,45.983484,-0.0086040248280351,Приволжский,Саратовская обл,,г Саратов,,,2.0,,ул Шелковичная,122/126,,,,,,,,,,,389.946434,838042.0
5198,445.0,1942.0,8/1 DOMOSTROITELEY        TYUMEN      ,"улица Домостроителей, 8/1, микрорайон Казачьи Луга, Тюмень, Россия",57.153195,65.643671,0.0117477855939521,Уральский,Тюменская обл,,г Тюмень,,,2.0,,ул Домостроителей,8,,,,,,,,,,,472.867907,807271.0
5199,446.0,1942.0,9/1 KASHIRSKAYA STR       ROSTOV-ON-DO,"Каширская улица, 9/1, Ростов-на-Дону, Россия, 344091",47.198658,39.621202,-0.0010516452000178,Южный,Ростовская обл,,г Ростов-на-Дону,,,2.0,,ул Каширская,,,,,,,,,,,,356.060417,1137904.0
194,448.0,1942.0,43 DUBROVINSKOGO ST       KRASNOYARSK ,"улица Дубровинского, 43, Красноярск, Россия, 660049",56.006618,92.857081,-0.134047720207033,Сибирский,Красноярский край,,г Красноярск,,Железнодорожный р-н,2.0,,ул Дубровинского,43,,,,,,,,,,,0.0,1093771.0
2674,449.0,1942.0,211 LENINA STR.           TOMSK       ,"проспект Ленина, 211, Томск, Россия, 634009",56.509136,84.946571,-0.0582204100691848,Сибирский,Томская обл,,г Томск,,,2.0,,пр-кт Ленина,211,,,,,,,,,,,168.145948,576624.0
2675,451.0,1942.0,48/1 T.SNEZHINOY          NOVOSIBIRSK ,"улица Татьяны Снежиной, 48/1, Новосибирск, Россия, 630133",55.024399,83.02423,-0.0306966103397853,Сибирский,Новосибирская обл,,г Новосибирск,,Октябрьский р-н,2.0,,ул Татьяны Снежиной,48/1,3.4,Золотая нива,Дзержинская,3.4,,,,,,,480.886137,1625631.0
3956,452.0,1942.0,28 ASKOLDOVTSEV STR       MURMANSK    ,"улица Аскольдовцев, 28, Мурманск, Россия, 183040",68.999275,33.080703,-0.0526117751314486,Северо-Западный,Мурманская обл,,г Мурманск,,,2.0,,ул Аскольдовцев,28,,,,,,,,,,,171.060921,287847.0
195,454.0,1942.0,1 BELYAEVA STR.           ORSK        ,"улица Беляева, 1, микрорайон Новый город, Орск, Оренбургская область, Россия, 462430",51.258168,58.432355,-0.0885592443253684,Приволжский,Оренбургская обл,,г Орск,,,0.0,,ул Беляева,1,,,,,,,,,,,595.101429,226502.0
196,456.0,1942.0,93 LENINA AV.             ORSK        ,"проспект Ленина, 93, микрорайон Новый город, Орск, Оренбургская область, Россия, 462429",51.250519,58.452639,-0.106385961852148,Приволжский,Оренбургская обл,,г Орск,,,0.0,,пр-кт Ленина,93,,,,,,,,,,,595.101429,226502.0
2676,457.0,1942.0,32 PARKOVIY AV.           ORENBURG    ,"Парковый проспект, 32, Оренбург, Россия, 460000",51.774012,55.084873,-0.0140457144994839,Приволжский,Оренбургская обл,,г Оренбург,,Промышленный р-н,2.0,,Парковый пр-кт,32,,,,,,,,,,,257.917002,572188.0
2677,458.0,1942.0,14B ANTONOVA STR.         SARATOV     ,"улица имени Академика О.К. Антонова, 14, Саратов, Россия",51.600324,45.98458,-0.0203939801083619,Приволжский,Саратовская обл,,г Саратов,,Ленинский р-н,2.0,,ул им академика О.К.Антонова,14,,,,,,,,,,,389.946434,838042.0
2678,460.0,1942.0,38 K.MARKSA STR           CHEBOKSARY  ,"улица Карла Маркса, 38, Чебоксары, Чувашская Республика, Россия",56.138869,47.24771,-0.0921541348499958,Приволжский,Чувашская республика - Чувашия,,г Чебоксары,,,2.0,,ул К.Маркса,38,,,,,,,,,,,110.737463,497618.0
5200,461.0,1942.0,12 NIKOLAEVA STR.         NOVOSIBIRSK ,"улица Николаева, 12, Новосибирск, Россия, 630090",54.857844,83.111798,-0.0184619870524543,Сибирский,Новосибирская обл,,г Новосибирск,,Советский р-н,2.0,,ул Николаева,12,,,,,,,,,,,480.886137,1625631.0
2679,462.0,1942.0,167 ZARUBINA STR.         SARATOV     ,"улица Зарубина, 167, Саратов, Россия",51.541568,46.014206,-0.0820955403807163,Приволжский,Саратовская обл,,г Саратов,,,2.0,,ул им Зарубина В.С.,167,,,,,,,,,,,389.946434,838042.0
197,463.0,1942.0,525 KRASNIKH PARTIZ       KRASNODAR   ,"улица Красных Партизан, 525литД, Краснодар, Россия, 350049",45.049819,38.967498,0.0234097875213277,Южный,Краснодарский край,,г Краснодар,,,2.0,,ул Красных Партизан,525,,,,,,,,,,,240.724128,932629.0
1448,465.0,1942.0,28 TRANSPORTNAYA ST       SOCHI       ,"Транспортная улица, 28, Сочи, Краснодарский край, Россия",43.605392,39.749966,0.0219724605622519,Южный,Краснодарский край,,г Сочи,,Центральный р-н,0.0,,ул Транспортная,28,,,,,,,,,,,230.369186,443562.0
198,466.0,1942.0,3A GEN.SHTEMENKO          VOLGOGRAD   ,"улица Генерала Штеменко, 3А, Волгоград, Россия, 400105",48.771273,44.564092,-0.0068505891056883,Южный,Волгоградская обл,,г Волгоград,,Краснооктябрьский р-н,2.0,,ул им. генерала Штеменко,3а,,,,,,,,,,,861.555578,1008998.0
3957,468.0,1942.0,1 DYADKOVO S.             RYAZAN      ,"село Дядьково, 1, Рязанский район, Рязанская область, Россия",54.619583,39.80206,0.0218048779621596,Центральный,Рязанская обл,Рязанский р-н,,,,4.0,село Дядьково,,,,,,,,,,,,,39710.862707,1121474.0
199,469.0,1942.0,24 50-LET OKTYABRYA       UFA         ,"улица 50-летия Октября, 24, Уфа, Республика Башкортостан, Россия, 450005",54.737283,55.976666,-0.036416262446369,Приволжский,Респ Башкортостан,,г Уфа,,Советский р-н,2.0,,ул 50-летия Октября,24,,,,,,,,,,,667.015179,1128787.0
200,470.0,1942.0,8V MILITSEYSKAYA STR      U.-SAKHALINS,"Милицейская улица, 8, Южно-Сахалинск, Сахалинская область, Россия",46.966405,142.731815,0.0419144559588825,Дальневосточный,Сахалинская обл,,г Южно-Сахалинск,,,2.0,,ул Милицейская,8,,,,,,,,,,,207.740736,200636.0
201,472.0,1942.0,25. KUIBYSHEVA STR.       CHAPAEVSK   ,"улица Куйбышева, 25, Чапаевск, Самарская область, Россия, 446100",52.978797,49.707926,-0.046199924588766,Приволжский,Самарская обл,,г Чапаевск,,,0.0,,ул Куйбышева,25,,,,,,,,,,,194.909009,71720.0
5201,474.0,1942.0,6/6 NARTOVA STR.          N.NOVGOROD  ,"улица Нартова, 6к6, Нижний Новгород, Россия, 603057",56.281426,43.99562,-0.0890578552945783,Приволжский,Нижегородская обл,,г Нижний Новгород,,Советский р-н,2.0,,ул Нартова,6,3.6,Горьковская,Автозаводская,3.6,Ленинская,Автозаводская,4.0,Заречная,Автозаводская,4.2,316.710804,1252236.0
3958,475.0,1942.0,12-KM TOMSK-ITATKA        TOMSKIY R-N ,"разъезд 52-й километр, 12, деревня Обухово, сельское поселение Гжельское, Раменский район, Московская область, Россия",55.6283972,38.3507311,0.0019260086153146,Центральный,Московская обл,,г Раменское,,,1.0,д Обухово,рзд 52-й км,12,,,,,,,,,,,58.69665,116077.0
202,476.0,1942.0,138 MICHURINA STR         SAMARA      ,"улица Мичурина, 138, Самара, Россия, 443086",53.217014,50.167594,0.0242607032926806,Приволжский,Самарская обл,,г Самара,,,2.0,,ул Мичурина,138,1.3,Российская,Первая,1.3,Московская,Первая,1.6,Гагаринская,Первая,1.9,543.719859,1156659.0
3959,477.0,1942.0,51-Y GVARDEISKAYA 9       VOLGOGRAD   ,"улица 51-й Гвардейской Дивизии, 9, Волгоград, Россия",48.76787,44.479219,0.0206677852236734,Южный,Волгоградская обл,,г Волгоград,,Дзержинский р-н,2.0,,ул 51-й Гвардейской,9,,,,,,,,,,,861.555578,1008998.0
5202,478.0,1942.0,131 BOLSHEVITSKAYA        NOVOSIBIRSK ,"Большевистская улица, 131, Новосибирск, Россия, 630083",54.999397,82.959857,-0.086447935923464,Сибирский,Новосибирская обл,,г Новосибирск,,,2.0,,ул Большевистская,131,1.7,Речной вокзал,Ленинская,1.7,Октябрьская,Ленинская,2.5,Студенческая,Ленинская,3.6,480.886137,1625631.0
3960,479.0,1942.0,21 KRAMATORSKAYA ST       ORSK        ,"Краматорская улица, 21, микрорайон Новый город, Орск, Оренбургская область, Россия, 462411",51.221685,58.486101,-0.084915750082781,Приволжский,Оренбургская обл,,г Орск,,,0.0,,ул Краматорская,21,,,,,,,,,,,595.101429,226502.0
1449,481.0,1942.0,6 TOTMINA STR             KRASNOYARSK ,"улица Тотмина, 6, микрорайон Северо-Западный, Красноярск, Россия",56.031553,92.775766,0.0210607216547686,Сибирский,Красноярский край,,г Красноярск,,Октябрьский р-н,2.0,,ул Тотмина,6,,,,,,,,,,,0.0,1093771.0
5203,486.0,1942.0,23 SIBIRSKAYA STR.        GLAZOV      ,"Сибирская улица, 23, Глазов, Удмуртская Республика, Россия, 427628",58.133997,52.681538,-0.114294459859911,Приволжский,Удмуртская Респ,,г Глазов,,,0.0,,ул Сибирская,23,,,,,,,,,,,74.692142,92334.0
2680,487.0,1942.0,191 KARLA MARKSA STR.     IZHEVSK     ,"улица Карла Маркса, 191, Ижевск, Удмуртская Республика, Россия",56.847553,53.20292,0.0053388781858151,Приволжский,Удмуртская Респ,,г Ижевск,,,2.0,,ул Карла Маркса,191,,,,,,,,,,,318.372702,648146.0
5204,488.0,1942.0,3-10 NEVEZHINA STR.       KURGAN      ,"улица Тимофея Невежина, 3с10, Курган, Россия",55.428347,65.298062,-0.0076342704651472,Уральский,Курганская обл,,г Курган,,,2.0,,ул Тимофея Невежина,3,,,,,,,,,,,392.377314,312364.0
203,489.0,1942.0,46/1 VYSOTSKOGO STR       NOVOSIBIRSK ,"улица Владимира Высоцкого, 46, Новосибирск, Россия",55.027805,83.024032,-0.0555480534136495,Сибирский,Новосибирская обл,,г Новосибирск,,Октябрьский р-н,2.0,,ул В.Высоцкого,46,3.3,Золотая нива,Дзержинская,3.3,Березовая роща,Дзержинская,4.8,,,,480.886137,1625631.0
3961,491.0,1942.0,7 G.SHTEMENKO STR.        VOLGOGRAD   ,"улица Генерала Штеменко, 7, Волгоград, Россия, 400105",48.772888,44.560696,-0.0742112044172819,Южный,Волгоградская обл,,г Волгоград,,Краснооктябрьский р-н,2.0,,ул им. генерала Штеменко,7,,,,,,,,,,,861.555578,1008998.0
5205,493.0,1942.0,255 UDMURTSKAYA STR       IZHEVSK     ,"Удмуртская улица, 255, Ижевск, Удмуртская Республика, Россия, 426011",56.868797,53.222378,-0.0939331780995024,Приволжский,Удмуртская Респ,,г Ижевск,,,2.0,,ул Удмуртская,255,,,,,,,,,,,318.372702,648146.0
2681,494.0,1942.0,148A K.MARKSA STR         KRASNOYARSK ,"улица Карла Маркса, 148А, Красноярск, Россия, 660021",56.009346,92.839259,0.0160431657484531,Сибирский,Красноярский край,,г Красноярск,,,2.0,,ул Карла Маркса,148а,,,,,,,,,,,0.0,1093771.0
1450,495.0,1942.0,8 TEKSTILTCHIKOV 11       MOSCOW      ,"8-я улица Текстильщиков, 11, Москва, Россия, 109129",55.703525,37.743804,-0.0383717467530879,Центральный,г Москва,,г Москва,Юго-восточный,р-н Текстильщики,0.0,,ул 8-я Текстильщиков,11,1.0,Текстильщики,Таганско-Краснопресненская,1.0,Текстильщики,Курско-Рижский,1.0,Текстильщики,Большая кольцевая линия,1.1,2562.617022,12678079.0
204,496.0,1942.0,OTKRITOE SHOSSE 9         MOSCOW      ,"Открытое шоссе, 9, Москва, Россия, 107370",55.815413,37.738045,0.0530305321939476,Центральный,г Москва,,г Москва,Восточный,,0.0,,Открытое шоссе,,0.2,Бульвар Рокоссовского,МЦК,0.2,Бульвар Рокоссовского,Сокольническая,0.4,Локомотив,МЦК,1.4,2562.617022,12678079.0
1451,497.0,1942.0,SH ENTUZIASTOV 54A        MOSCOW      ,"шоссе Энтузиастов, 54, Москва, Россия, 111123",55.759476,37.761527,-0.016645043509634,Центральный,г Москва,,г Москва,Восточный,,0.0,,шоссе Энтузиастов,54,0.6,Шоссе Энтузиастов,Калининская,0.6,Шоссе Энтузиастов,МЦК,0.8,Соколиная Гора,МЦК,1.5,2562.617022,12678079.0
5206,499.0,1942.0,VOKZALNAYA 4 B            RAMENSKOE MO,"Вокзальная улица, 4, Раменское, Московская область, Россия, 140100",55.566603,38.224537,0.0459169990677513,Центральный,Московская обл,,г Раменское,,,1.0,,ул Вокзальная,4,,,,,,,,,,,58.69665,116077.0
